latitude	longitude	store_name	code	location	imei
28.54944	-81.77285	Clermont	US	America/New_York	3590433799317661198
51.39148	-0.29825	Surbiton	GB	Europe/London	8630330696303481057
13.8196	100.04427	Nakhon Pathom	TH	Asia/Bangkok	8630330696303481610
-28.24	-48.67028	Imbituba	BR	America/Sao_Paulo	359043379931766619
47.48444	36.25361	Polohy	UA	Europe/Zaporozhye	3590433799317662428
40.34912	-111.90466	Saratoga Springs	US	America/Denver	8630330696303481057
14.8361	120.97844	Guyong	PH	Asia/Manila	359043379931766973
7.62789	4.74161	Ilesa	NG	Africa/Lagos	359043379931766114
48.07667	8.64409	Trossingen	DE	Europe/Berlin	863033069630348065
54.52156	9.5586	Schleswig	DE	Europe/Berlin	359043379931766254
0.46005	34.11169	Busia	KE	Africa/Nairobi	863033069630348404
41.55838	-81.56929	Collinwood	US	America/New_York	3590433799317661479
-17.83333	48.41667	Ambatondrazaka	MG	Indian/Antananarivo	359043379931766346
38.58894	-89.99038	Fairview Heights	US	America/Chicago	8630330696303481206
39.78504	-85.76942	Greenfield	US	America/Indiana/Indianapolis	3590433799317662337
34.06635	-84.67837	Acworth	US	America/New_York	359043379931766544
52.53048	13.29371	Charlottenburg-Nord	DE	Europe/Berlin	3590433799317662139
35.05266	-78.87836	Fayetteville	US	America/New_York	863033069630348107
-33.88096	151.07986	Strathfield	AU	Australia/Sydney	359043379931766650
-21.98333	16.91667	Okahandja	NA	Africa/Windhoek	3590433799317662204
41.94175	123.50266	Hushitai	CN	Asia/Shanghai	3590433799317661735
68.79833	16.54165	Harstad	NO	Europe/Oslo	359043379931766635
52.48173	-2.12139	Brierley Hill	GB	Europe/London	8630330696303481503
41.92361	20.91361	Bogovinje	MK	Europe/Skopje	8630330696303482048
31.39547	34.75699	Rahat	IL	Asia/Jerusalem	8630330696303482253
11.93381	79.82979	Puducherry	IN	Asia/Kolkata	3590433799317661693
39.45621	-77.96389	Martinsburg	US	America/New_York	8630330696303481842
53.0233	-1.48119	Belper	GB	Europe/London	8630330696303481032
42.8139	-1.64295	Segundo Ensanche	ES	Europe/Madrid	863033069630348750
-1.26753	116.82887	Balikpapan	ID	Asia/Makassar	3590433799317661081
40.53123	17.58522	Francavilla Fontana	IT	Europe/Rome	3590433799317662428
40.82232	-74.15987	Nutley	US	America/New_York	359043379931766718
52.59319	13.32127	Wittenau	DE	Europe/Berlin	863033069630348685
33.42585	-6.00137	Oulmes	MA	Africa/Casablanca	8630330696303482105
4.2475	9.00472	Idenao	CM	Africa/Douala	8630330696303482246
50.86079	17.4674	Brzeg	PL	Europe/Warsaw	8630330696303481859
-33.59217	-70.6996	San Bernardo	CL	America/Santiago	863033069630348172
33.92946	-116.97725	Beaumont	US	America/Los_Angeles	3590433799317661867
52.4581	13.28702	Dahlem	DE	Europe/Berlin	8630330696303481545
37.65639	126.835	Goyang-si	KR	Asia/Seoul	3590433799317661842
49.593777	17.250879	Olomouc	CZ	Europe/Prague	3590433799317661164
45.16024	-93.08883	Lino Lakes	US	America/Chicago	8630330696303481040
26.32293	91.00632	Barpeta	IN	Asia/Kolkata	863033069630348685
38.13708	41.00817	Silvan	TR	Europe/Istanbul	863033069630348768
53.77166	38.12408	Bogoroditsk	RU	Europe/Moscow	8630330696303482022
41.94175	123.50266	Hushitai	CN	Asia/Shanghai	8630330696303482303
-37.32167	-59.13316	Tandil	AR	America/Argentina/Buenos_Aires	8630330696303481602
46.32313	-0.45877	Niort	FR	Europe/Paris	3590433799317661313
4.88441	101.96857	Gua Musang	MY	Asia/Kuala_Lumpur	3590433799317662469
3.8801	-77.03116	Buenaventura	CO	America/Bogota	8630330696303481768
50.88506	4.07601	Denderleeuw	BE	Europe/Brussels	359043379931766510
35.06544	1.04945	Frenda	DZ	Africa/Algiers	3590433799317661156
44.59445	11.04979	Castelfranco Emilia	IT	Europe/Rome	359043379931766296
40.60538	-73.75513	Far Rockaway	US	America/New_York	359043379931766163
44.75874	19.21437	Bijeljina	BA	Europe/Sarajevo	359043379931766619
0.46005	34.11169	Busia	KE	Africa/Nairobi	8630330696303481859
41.24264	16.50104	Bisceglie	IT	Europe/Rome	8630330696303481966
50.80904	8.77069	Marburg an der Lahn	DE	Europe/Berlin	359043379931766825
41.24264	16.50104	Bisceglie	IT	Europe/Rome	359043379931766296
19.64745	-102.04897	Paracho de Verduzco	MX	America/Mexico_City	3590433799317661677
50.86079	17.4674	Brzeg	PL	Europe/Warsaw	359043379931766775
42.64685	-5.55835	Villaquilambre	ES	Europe/Madrid	863033069630348198
40.37528	28.88222	Mudanya	TR	Europe/Istanbul	359043379931766130
52.09	5.23333	Zeist	NL	Europe/Amsterdam	8630330696303482048
-30.60106	-71.19901	Ovalle	CL	America/Santiago	3590433799317661438
32.5007	-94.74049	Longview	US	America/Chicago	8630330696303481933
49.5099	6.74549	Losheim	DE	Europe/Berlin	8630330696303481669
48.35693	10.98461	Friedberg	DE	Europe/Berlin	863033069630348594
40.64621	-73.97069	Kensington	US	America/New_York	8630330696303482097
-22.97056	-46.99583	Valinhos	BR	America/Sao_Paulo	3590433799317661628
48.975658	14.480255	České Budějovice	CZ	Europe/Prague	3590433799317662352
-7.0981	109.3243	Randudongkal	ID	Asia/Jakarta	3590433799317661800
34.9	137.5	Shinshiro	JP	Asia/Tokyo	359043379931766817
5.84752	-5.682	Lakota	CI	Africa/Abidjan	3590433799317661131
43.86682	-79.2663	Markham	CA	America/Toronto	8630330696303482030
19.32889	-99.32556	San Lorenzo Acopilco	MX	America/Mexico_City	3590433799317661818
-20.25333	-43.80139	Itabirito	BR	America/Sao_Paulo	8630330696303481800
16.455	120.5875	La Trinidad	PH	Asia/Manila	359043379931766213
9.535	-13.68778	Camayenne	GN	Africa/Conakry	863033069630348768
9.89206	43.38531	Baki	SO	Africa/Mogadishu	359043379931766536
59.33333	18.28333	Boo	SE	Europe/Stockholm	863033069630348016
-15.675	-38.94722	Canavieiras	BR	America/Bahia	3590433799317662337
48.46458	9.22796	Pfullingen	DE	Europe/Berlin	8630330696303481891
17.54907	82.85749	Elamanchili	IN	Asia/Kolkata	3590433799317661446
26.11527	86.59509	Supaul	IN	Asia/Kolkata	863033069630348545
34.9	137.5	Shinshiro	JP	Asia/Tokyo	8630330696303481883
32.17629	75.06583	Fazilpur	PK	Asia/Karachi	863033069630348545
41.50343	-74.01042	Newburgh	US	America/New_York	3590433799317661495
30.46907	70.96699	Kot Addu	PK	Asia/Karachi	3590433799317662014
40.68066	-73.47429	Massapequa	US	America/New_York	8630330696303481735
-6.25	38.66667	Mvomero	TZ	Africa/Dar_es_Salaam	8630330696303481263
5.27247	-3.59625	Bonoua	CI	Africa/Abidjan	3590433799317661495
49.97704	9.15214	Aschaffenburg	DE	Europe/Berlin	359043379931766536
1.6561	103.6032	Kulai	MY	Asia/Kuala_Lumpur	863033069630348123
-34.88422	150.60036	Nowra	AU	Australia/Sydney	8630330696303481578
-7.81667	112.01667	Kediri	ID	Asia/Jakarta	8630330696303481487
44.92934	37.99117	Krymsk	RU	Europe/Moscow	3590433799317661800
13.51825	99.95469	Damnoen Saduak	TH	Asia/Bangkok	3590433799317661032
8.48714	-13.2356	Freetown	SL	Africa/Freetown	8630330696303481347
50.5107	18.30056	Strzelce Opolskie	PL	Europe/Warsaw	863033069630348693
-7.73379	113.69785	Besuki	ID	Asia/Jakarta	3590433799317662287
44.59445	11.04979	Castelfranco Emilia	IT	Europe/Rome	3590433799317662337
37.51803	15.00913	Misterbianco	IT	Europe/Rome	863033069630348677
3.8801	-77.03116	Buenaventura	CO	America/Bogota	3590433799317661875
51.39148	-0.29825	Surbiton	GB	Europe/London	359043379931766718
15.48131	-86.57415	Olanchito	HN	America/Tegucigalpa	359043379931766056
39.08367	-84.50855	Covington	US	America/New_York	8630330696303482428
18.57677	-72.22625	Croix-des-Bouquets	HT	America/Port-au-Prince	863033069630348172
-3.14306	-58.44417	Itacoatiara	BR	America/Manaus	3590433799317662170
-7.51611	109.05389	Wangon	ID	Asia/Jakarta	359043379931766593
44.92801	4.8951	Valence	FR	Europe/Paris	8630330696303481958
26.11527	86.59509	Supaul	IN	Asia/Kolkata	8630330696303481628
49.183239	15.454273	Telč	CZ	Europe/Prague	863033069630348958
40.64621	-73.97069	Kensington	US	America/New_York	3590433799317662386
39.45621	-77.96389	Martinsburg	US	America/New_York	8630330696303481255
41.24264	16.50104	Bisceglie	IT	Europe/Rome	3590433799317662246
28.98002	77.70636	Meerut	IN	Asia/Kolkata	863033069630348065
33.43443	-5.22126	Azrou	MA	Africa/Casablanca	359043379931766924
53.14657	140.72287	Nikolayevsk-on-Amure	RU	Asia/Vladivostok	863033069630348263
34.25628	-78.04471	Leland	US	America/New_York	359043379931766163
-23.85972	35.34722	Maxixe	MZ	Africa/Maputo	3590433799317661776
32.54044	-82.90375	Dublin	US	America/New_York	359043379931766700
-1.26424	104.09701	Simpang	ID	Asia/Jakarta	359043379931766056
41.50343	-74.01042	Newburgh	US	America/New_York	3590433799317662170
13.44581	101.18445	Phanat Nikhom	TH	Asia/Bangkok	863033069630348453
43.1122	12.38878	Perugia	IT	Europe/Rome	3590433799317662279
48.35693	10.98461	Friedberg	DE	Europe/Berlin	863033069630348552
55.62047	37.49338	Tyoply Stan	RU	Europe/Moscow	8630330696303481271
-32.05251	115.88782	Willetton	AU	Australia/Perth	8630330696303481321
11.12018	76.11996	Manjeri	IN	Asia/Kolkata	359043379931766957
15.45144	78.14797	Betamcherla	IN	Asia/Kolkata	8630330696303481404
7.50251	5.06258	Igbara-Odo	NG	Africa/Lagos	8630330696303481149
37.49223	15.07041	Catania	IT	Europe/Rome	8630330696303481263
41.09246	45.36561	Qazax	AZ	Asia/Baku	359043379931766734
31.76212	-95.63079	Palestine	US	America/Chicago	863033069630348636
41.1053	-7.32097	Custoias	PT	Europe/Lisbon	8630330696303481966
50.8	3.16667	Wevelgem	BE	Europe/Brussels	8630330696303481248
14.14989	121.3152	Calauan	PH	Asia/Manila	8630330696303481404
30.46907	70.96699	Kot Addu	PK	Asia/Karachi	359043379931766866
25.92493	73.66633	Sojat	IN	Asia/Kolkata	359043379931766015
61.78491	34.34691	Petrozavodsk	RU	Europe/Moscow	863033069630348685
50.64336	7.2278	Bad Honnef	DE	Europe/Berlin	8630330696303481933
51.82721	107.60627	Ulan-Ude	RU	Asia/Irkutsk	359043379931766817
28.54944	-81.77285	Clermont	US	America/New_York	8630330696303481263
-21.44236	27.46153	Tonota	BW	Africa/Gaborone	359043379931766734
-4.24444	-42.29444	Barras	BR	America/Fortaleza	863033069630348859
38.55632	69.01354	Vahdat	TJ	Asia/Dushanbe	8630330696303482279
-6.25	38.66667	Mvomero	TZ	Africa/Dar_es_Salaam	3590433799317661560
26.67319	31.4976	Juhaynah	EG	Africa/Cairo	359043379931766064
46.7055	38.2739	Yeysk	RU	Europe/Moscow	863033069630348743
18.51957	73.85535	Pune	IN	Asia/Kolkata	3590433799317661263
42.8139	-1.64295	Segundo Ensanche	ES	Europe/Madrid	8630330696303481339
52.66277	-2.01111	Great Wyrley	GB	Europe/London	8630330696303481677
40.67705	-73.89125	Cypress Hills	US	America/New_York	8630330696303482212
51.168	7.973	Finnentrop	DE	Europe/Berlin	3590433799317662113
50.72043	11.34046	Rudolstadt	DE	Europe/Berlin	3590433799317661800
51.65	-0.2	Barnet	GB	Europe/London	3590433799317661990
34.4833	136.84186	Toba	JP	Asia/Tokyo	863033069630348073
53.16167	6.76111	Hoogezand	NL	Europe/Amsterdam	863033069630348727
35.06667	135.21667	Sasayama	JP	Asia/Tokyo	8630330696303481412
53.6052	10.03988	Barmbek-Nord	DE	Europe/Berlin	863033069630348909
25.75728	75.37991	Deoli	IN	Asia/Kolkata	863033069630348719
34.56861	105.89333	Beidao	CN	Asia/Shanghai	359043379931766577
-3.74912	-73.25383	Iquitos	PE	America/Lima	3590433799317661644
12.04161	75.35927	Talipparamba	IN	Asia/Kolkata	8630330696303482444
6.46346	-2.31938	Bibiani	GH	Africa/Accra	359043379931766007
24.41288	76.56719	Aklera	IN	Asia/Kolkata	8630330696303481354
43.91452	-69.96533	Brunswick	US	America/New_York	8630330696303481750
64.5635	39.8302	Severodvinsk	RU	Europe/Moscow	3590433799317661115
3.7278	98.6738	Labuhan Deli	ID	Asia/Jakarta	863033069630348578
22.75218	72.68533	Kheda	IN	Asia/Kolkata	863033069630348149
33.98154	-81.23621	Lexington	US	America/New_York	3590433799317661206
25.92127	86.79271	Madhipura	IN	Asia/Kolkata	3590433799317661933
35.95664	36.7138	Binnish	SY	Asia/Damascus	3590433799317661859
41.9001	-71.08977	Taunton	US	America/New_York	8630330696303481560
12.04161	75.35927	Talipparamba	IN	Asia/Kolkata	3590433799317662022
36.6009	126.665	Hongseong	KR	Asia/Seoul	359043379931766197
26.76628	83.36889	Gorakhpur	IN	Asia/Kolkata	863033069630348909
15.58552	102.42587	Bua Yai	TH	Asia/Bangkok	359043379931766221
43.78956	7.60872	Ventimiglia	IT	Europe/Rome	359043379931766015
52.48173	-2.12139	Brierley Hill	GB	Europe/London	8630330696303481487
27.9247	78.40102	Chharra	IN	Asia/Kolkata	8630330696303481461
-6.8	39.25	Magomeni	TZ	Africa/Dar_es_Salaam	863033069630348164
10.66668	-61.51889	Port of Spain	TT	America/Port_of_Spain	3590433799317661370
16.06213	76.0586	Hungund	IN	Asia/Kolkata	359043379931766700
8.56697	123.33471	Dipolog	PH	Asia/Manila	3590433799317661255
9.58126	8.2926	Kafanchan	NG	Africa/Lagos	359043379931766577
9.3337	122.8637	Santa Catalina	PH	Asia/Manila	8630330696303481909
31.39547	34.75699	Rahat	IL	Asia/Jerusalem	3590433799317661834
35.74788	-95.36969	Muskogee	US	America/Chicago	3590433799317661362
6.84019	79.87116	Dehiwala-Mount Lavinia	LK	Asia/Colombo	8630330696303482162
54.39635	24.04142	Alytus	LT	Europe/Vilnius	3590433799317661800
24.41288	76.56719	Aklera	IN	Asia/Kolkata	3590433799317661669
41.91738	3.1631	Palafrugell	ES	Europe/Madrid	359043379931766585
36.19278	117.65694	Laiwu	CN	Asia/Shanghai	3590433799317661933
29.69221	72.54566	Hasilpur	PK	Asia/Karachi	3590433799317661784
65.84811	24.14662	Tornio	FI	Europe/Helsinki	3590433799317662493
35.48199	137.02166	Minokamo	JP	Asia/Tokyo	3590433799317662428
26.91756	-82.07842	Punta Gorda Isles	US	America/New_York	3590433799317662022
21.34222	71.30633	Kundla	IN	Asia/Kolkata	863033069630348420
44.27804	-88.27205	Kaukauna	US	America/Chicago	8630330696303482246
45.49428	-122.86705	Aloha	US	America/Los_Angeles	359043379931766999
-37.88333	145.06667	Carnegie	AU	Australia/Melbourne	8630330696303482287
18.57677	-72.22625	Croix-des-Bouquets	HT	America/Port-au-Prince	359043379931766676
-3.20333	-52.20639	Altamira	BR	America/Santarem	8630330696303481065
13.8196	100.04427	Nakhon Pathom	TH	Asia/Bangkok	3590433799317661610
-7.57897	112.23109	Diwek	ID	Asia/Jakarta	3590433799317662436
9.92787	-84.13722	San Rafael	CR	America/Costa_Rica	8630330696303481834
0.46005	34.11169	Busia	KE	Africa/Nairobi	359043379931766577
33.93113	-117.54866	Norco	US	America/Los_Angeles	863033069630348594
38.70734	-77.02303	Fort Washington	US	America/New_York	8630330696303482030
31.96258	73.97117	Naushahra Virkan	PK	Asia/Karachi	3590433799317661438
43.54072	-116.56346	Nampa	US	America/Boise	3590433799317662394
-44.39672	171.25364	Timaru	NZ	Pacific/Auckland	863033069630348743
23.18	88.58	Aistala	IN	Asia/Kolkata	863033069630348099
37.19723	122.05228	Tianfu	CN	Asia/Shanghai	863033069630348222
22.37066	114.10479	Tsuen Wan	HK	Asia/Hong_Kong	3590433799317662006
41.55815	-73.0515	Waterbury	US	America/New_York	3590433799317661396
32.35126	-95.30106	Tyler	US	America/Chicago	3590433799317662014
12.12278	-61.62498	Grenville	GD	America/Grenada	359043379931766692
5.27247	-3.59625	Bonoua	CI	Africa/Abidjan	863033069630348172
36.76639	3.47717	Boumerdas	DZ	Africa/Algiers	8630330696303482394
50.23271	12.87117	Karlovy Vary	CZ	Europe/Prague	359043379931766015
49.183239	15.454273	Telč	CZ	Europe/Prague	8630330696303481263
48.43174	17.8031	Hlohovec	SK	Europe/Bratislava	8630330696303481594
20.88098	75.11937	Parola	IN	Asia/Kolkata	3590433799317662162
7.50251	5.06258	Igbara-Odo	NG	Africa/Lagos	359043379931766486
0.03813	36.36339	Nyahururu	KE	Africa/Nairobi	359043379931766171
36.06386	4.62744	El Achir	DZ	Africa/Algiers	359043379931766395
4.88441	101.96857	Gua Musang	MY	Asia/Kuala_Lumpur	359043379931766528
51.39148	-0.29825	Surbiton	GB	Europe/London	3590433799317661883
33.3213	130.94098	Hita	JP	Asia/Tokyo	359043379931766494
15.73628	75.96976	Gajendragarh	IN	Asia/Kolkata	3590433799317662345
42.16808	-88.42814	Huntley	US	America/Chicago	863033069630348073
3.8801	-77.03116	Buenaventura	CO	America/Bogota	8630330696303482352
44.89784	8.86374	Tortona	IT	Europe/Rome	8630330696303481669
41.8542	-87.66561	Lower West Side	US	America/Chicago	8630330696303482485
27.55898	68.21204	Larkana	PK	Asia/Karachi	8630330696303481636
42.55308	-87.93341	Pleasant Prairie	US	America/Chicago	863033069630348214
34.95303	-120.43572	Santa Maria	US	America/Los_Angeles	8630330696303481677
43.1122	12.38878	Perugia	IT	Europe/Rome	3590433799317662337
34.95303	-120.43572	Santa Maria	US	America/Los_Angeles	863033069630348222
42.819	47.1192	Buynaksk	RU	Europe/Moscow	3590433799317662113
-11.48472	-37.93278	Rio Real	BR	America/Bahia	3590433799317661842
49.5099	6.74549	Losheim	DE	Europe/Berlin	359043379931766106
26.68451	-80.66756	Belle Glade	US	America/New_York	863033069630348834
53.53041	43.67663	Nizhniy Lomov	RU	Europe/Moscow	359043379931766221
65.93381	111.4834	Aykhal	RU	Asia/Yakutsk	8630330696303481594
1.6	103.81667	Ulu Tiram	MY	Asia/Kuala_Lumpur	3590433799317662196
52.53048	13.29371	Charlottenburg-Nord	DE	Europe/Berlin	3590433799317661511
48.98994	2.1699	Herblay	FR	Europe/Paris	8630330696303482055
41.09822	120.74792	Nanpiao	CN	Asia/Shanghai	863033069630348032
36.21544	65.93249	Sar-e Pul	AF	Asia/Kabul	3590433799317661974
-15.21194	-75.11028	Minas de Marcona	PE	America/Lima	8630330696303482105
37.73222	115.70111	Hengshui	CN	Asia/Shanghai	359043379931766080
16.75973	-93.11308	Tuxtla	MX	America/Mexico_City	863033069630348826
55.62047	37.49338	Tyoply Stan	RU	Europe/Moscow	8630330696303482105
40.93121	-73.89875	Yonkers	US	America/New_York	863033069630348982
5.84752	-5.682	Lakota	CI	Africa/Abidjan	8630330696303482139
34.5624	38.28402	Tadmur	SY	Asia/Damascus	3590433799317661867
27.09978	-82.45426	Venice	US	America/New_York	3590433799317662113
45.73333	4.91667	Bron	FR	Europe/Paris	8630330696303481636
41.0051	-73.78458	Scarsdale	US	America/New_York	3590433799317661974
35.74788	-95.36969	Muskogee	US	America/Chicago	863033069630348701
42.4251	-71.06616	Malden	US	America/New_York	3590433799317662402
55.82737	-4.0573	Viewpark	GB	Europe/London	3590433799317661974
33.92866	-6.90656	Temara	MA	Africa/Casablanca	3590433799317662360
43.61062	-72.97261	Rutland	US	America/New_York	8630330696303482162
40.68066	-73.47429	Massapequa	US	America/New_York	8630330696303481800
-34.74785	-58.70072	Pontevedra	AR	America/Argentina/Buenos_Aires	3590433799317661198
4.96667	10.7	Tonga	CM	Africa/Douala	8630330696303481339
-13.7804	34.4587	Salima	MW	Africa/Blantyre	8630330696303481552
11.84962	-86.19903	Jinotepe	NI	America/Managua	3590433799317661578
18.20854	-71.10077	Santa Cruz de Barahona	DO	America/Santo_Domingo	8630330696303481842
8.56697	123.33471	Dipolog	PH	Asia/Manila	8630330696303481701
27.52948	68.75915	Khairpur Mir‚Äôs	PK	Asia/Karachi	863033069630348792
-8.66667	-35.71667	Catende	BR	America/Recife	359043379931766601
41.77583	140.73667	Hakodate	JP	Asia/Tokyo	863033069630348149
33.76446	-117.79394	North Tustin	US	America/Los_Angeles	8630330696303481172
-3.20333	-52.20639	Altamira	BR	America/Santarem	3590433799317662469
46.23899	-63.13414	Charlottetown	CA	America/Halifax	359043379931766502
37.19723	122.05228	Tianfu	CN	Asia/Shanghai	8630330696303481156
31.84568	-102.36764	Odessa	US	America/Chicago	3590433799317661610
-3.14306	-58.44417	Itacoatiara	BR	America/Manaus	3590433799317661339
55.1904	30.2049	Vitebsk	BY	Europe/Minsk	3590433799317661677
37.1759	128.9889	T‚Äôaebaek	KR	Asia/Seoul	3590433799317661156
56.03361	35.96944	Volokolamsk	RU	Europe/Moscow	359043379931766155
-21.44236	27.46153	Tonota	BW	Africa/Gaborone	3590433799317661644
50.80904	8.77069	Marburg an der Lahn	DE	Europe/Berlin	863033069630348339
30.21121	74.4818	Malaut	IN	Asia/Kolkata	359043379931766981
37.73604	-120.93549	Riverbank	US	America/Los_Angeles	359043379931766791
-22.92306	-53.13722	Loanda	BR	America/Sao_Paulo	3590433799317662477
18.51957	73.85535	Pune	IN	Asia/Kolkata	863033069630348941
19.64745	-102.04897	Paracho de Verduzco	MX	America/Mexico_City	359043379931766098
-17.74431	-48.62789	Caldas Novas	BR	America/Sao_Paulo	863033069630348255
40.87329	14.43865	Somma Vesuviana	IT	Europe/Rome	863033069630348115
37.31065	13.57661	Agrigento	IT	Europe/Rome	3590433799317661461
-4.26613	15.28318	Brazzaville	CG	Africa/Brazzaville	8630330696303482352
54.60528	18.34717	Reda	PL	Europe/Warsaw	8630330696303481529
22.37066	114.10479	Tsuen Wan	HK	Asia/Hong_Kong	8630330696303481693
33.03699	-117.29198	Encinitas	US	America/Los_Angeles	3590433799317662139
5.84752	-5.682	Lakota	CI	Africa/Abidjan	863033069630348008
40.1675	34.37389	Sungurlu	TR	Europe/Istanbul	359043379931766833
47.30997	8.52462	Adliswil	CH	Europe/Zurich	359043379931766700
42.06166	-1.60452	Tudela	ES	Europe/Madrid	3590433799317661628
34.31	-2.16	Jerada	MA	Africa/Casablanca	3590433799317662154
28.54944	-81.77285	Clermont	US	America/New_York	359043379931766395
33.35283	-111.78903	Gilbert	US	America/Phoenix	3590433799317661537
12.35275	121.06761	San Jose	PH	Asia/Manila	863033069630348388
39.72943	-104.83192	Aurora	US	America/Denver	8630330696303481115
30.17746	-81.38758	Palm Valley	US	America/New_York	3590433799317662014
30.76468	74.12286	Kanganpur	PK	Asia/Karachi	359043379931766957
32.35126	-95.30106	Tyler	US	America/Chicago	3590433799317662097
33.93113	-117.54866	Norco	US	America/Los_Angeles	3590433799317661461
23.0072	-82.4017	Boyeros	CU	America/Havana	8630330696303482006
38.96372	-76.99081	Chillum	US	America/New_York	3590433799317661917
25.92493	73.66633	Sojat	IN	Asia/Kolkata	863033069630348404
54.39635	24.04142	Alytus	LT	Europe/Vilnius	359043379931766619
32.42067	-104.22884	Carlsbad	US	America/Denver	3590433799317662402
43.41949	77.0202	Otegen Batyra	KZ	Asia/Almaty	8630330696303482402
42.97086	-82.42491	Port Huron	US	America/Detroit	863033069630348693
36.20829	-115.98391	Pahrump	US	America/Los_Angeles	359043379931766254
49.5099	6.74549	Losheim	DE	Europe/Berlin	8630330696303481107
24.28859	116.11768	Meizhou	CN	Asia/Shanghai	3590433799317661016
30.81383	75.16878	Moga	IN	Asia/Kolkata	863033069630348388
6.33444	124.95278	Tupi	PH	Asia/Manila	3590433799317661669
36.53333	136.61667	Nonoichi	JP	Asia/Tokyo	3590433799317661727
49.5099	6.74549	Losheim	DE	Europe/Berlin	3590433799317661693
42.7392	-84.62081	Waverly	US	America/Detroit	3590433799317661677
4.73245	-74.26419	Madrid	CO	America/Bogota	863033069630348784
48.98994	2.1699	Herblay	FR	Europe/Paris	8630330696303481727
10.22677	-67.33122	La Victoria	VE	America/Caracas	359043379931766577
48.98333	2.61667	Mitry-Mory	FR	Europe/Paris	863033069630348180
31.28092	74.85849	Patti	IN	Asia/Kolkata	359043379931766809
44.35056	142.45778	Nayoro	JP	Asia/Tokyo	359043379931766940
14.8361	120.97844	Guyong	PH	Asia/Manila	3590433799317662121
52.14	5.58472	Barneveld	NL	Europe/Amsterdam	8630330696303481016
16.06213	76.0586	Hungund	IN	Asia/Kolkata	8630330696303481321
61.78491	34.34691	Petrozavodsk	RU	Europe/Moscow	359043379931766619
43.86682	-79.2663	Markham	CA	America/Toronto	3590433799317662014
34.08565	74.80555	Srinagar	IN	Asia/Kolkata	8630330696303481586
10.66668	-61.51889	Port of Spain	TT	America/Port_of_Spain	3590433799317661826
15.48131	-86.57415	Olanchito	HN	America/Tegucigalpa	863033069630348578
49.144482	15.006139	Jindřichův Hradec	CZ	Europe/Prague	8630330696303481743
33.35283	-111.78903	Gilbert	US	America/Phoenix	3590433799317661826
37.05944	37.3825	Gaziantep	TR	Europe/Istanbul	3590433799317661313
-37.9	145.18333	Wheelers Hill	AU	Australia/Melbourne	8630330696303482337
42.64031	125.51176	Dongfeng	CN	Asia/Shanghai	8630330696303482014
20.88953	-156.47432	Kahului	US	Pacific/Honolulu	863033069630348487
43.48961	-8.2194	Ferrol	ES	Europe/Madrid	359043379931766932
-8.73508	24.99798	Kamina	CD	Africa/Lubumbashi	8630330696303481925
53.53333	-7.35	An Muileann gCearr	IE	Europe/Dublin	3590433799317661628
-1.26753	116.82887	Balikpapan	ID	Asia/Makassar	863033069630348222
51.65	-0.2	Barnet	GB	Europe/London	8630330696303481651
32.54278	111.50861	Danjiangkou	CN	Asia/Shanghai	863033069630348321
36.24624	139.07204	Fujioka	JP	Asia/Tokyo	863033069630348966
33.14447	47.3799	Darreh Shahr	IR	Asia/Tehran	359043379931766643
52.41667	0.75	Thetford	GB	Europe/London	359043379931766999
50.23019	8.77155	Karben	DE	Europe/Berlin	359043379931766197
53.0233	-1.48119	Belper	GB	Europe/London	863033069630348560
38.68712	-4.10734	Puertollano	ES	Europe/Madrid	3590433799317662303
6.46346	-2.31938	Bibiani	GH	Africa/Accra	8630330696303481073
39.08367	-84.50855	Covington	US	America/New_York	359043379931766049
37.49223	15.07041	Catania	IT	Europe/Rome	8630330696303482253
7.62789	4.74161	Ilesa	NG	Africa/Lagos	863033069630348776
51.24197	4.82313	Lille	BE	Europe/Brussels	863033069630348610
51.19139	6.51352	Korschenbroich	DE	Europe/Berlin	863033069630348479
35.20889	111.73861	Changzhi	CN	Asia/Shanghai	3590433799317662279
7.50251	5.06258	Igbara-Odo	NG	Africa/Lagos	359043379931766072
6.95194	121.96361	Recodo	PH	Asia/Manila	3590433799317661024
12.04161	75.35927	Talipparamba	IN	Asia/Kolkata	8630330696303481917
27.09978	-82.45426	Venice	US	America/New_York	3590433799317661446
7.62789	4.74161	Ilesa	NG	Africa/Lagos	359043379931766841
33.52253	-117.70755	Laguna Niguel	US	America/Los_Angeles	359043379931766841
48.79325	2.29275	Fontenay-aux-Roses	FR	Europe/Paris	863033069630348156
39.00622	-77.4286	Sterling	US	America/New_York	8630330696303481313
35.20889	111.73861	Changzhi	CN	Asia/Shanghai	863033069630348735
8.62261	-70.20749	Barinas	VE	America/Caracas	3590433799317661685
30.29184	71.67164	Qadirpur Ran	PK	Asia/Karachi	8630330696303481164
43.1122	12.38878	Perugia	IT	Europe/Rome	3590433799317661297
40.37528	28.88222	Mudanya	TR	Europe/Istanbul	3590433799317661610
33.72255	-116.37697	Palm Desert	US	America/Los_Angeles	3590433799317662360
54.90083	38.07083	Stupino	RU	Europe/Moscow	8630330696303482386
-23.85972	35.34722	Maxixe	MZ	Africa/Maputo	8630330696303482063
-11.94306	-76.70944	Chosica	PE	America/Lima	8630330696303481008
57.30185	39.85331	Gavrilov-Yam	RU	Europe/Moscow	8630330696303482212
26.11527	86.59509	Supaul	IN	Asia/Kolkata	359043379931766338
45.79377	8.88104	Malnate	IT	Europe/Rome	359043379931766734
12.97389	123.99333	Sorsogon	PH	Asia/Manila	3590433799317661032
50.75932	25.34244	Lutsk	UA	Europe/Kyiv	863033069630348990
35.88264	-80.08199	Thomasville	US	America/New_York	8630330696303482261
18.03496	-66.8499	Yauco	PR	America/Puerto_Rico	3590433799317661248
40.93333	73	Jalal-Abad	KG	Asia/Bishkek	359043379931766684
12.35275	121.06761	San Jose	PH	Asia/Manila	3590433799317661057
53.00974	-3.05814	Rhosllanerchrugog	GB	Europe/London	8630330696303482444
12.18441	18.69303	Mongo	TD	Africa/Ndjamena	3590433799317662014
18.42745	-67.15407	Aguadilla	PR	America/Puerto_Rico	359043379931766858
33.35283	-111.78903	Gilbert	US	America/Phoenix	8630330696303481966
50.23805	8.86704	Nidderau	DE	Europe/Berlin	8630330696303482311
25.92493	73.66633	Sojat	IN	Asia/Kolkata	8630330696303481248
-0.35817	42.54536	Kismayo	SO	Africa/Mogadishu	3590433799317661180
45.99194	29.41824	Artsyz	UA	Europe/Kyiv	3590433799317662253
23.1959	86.51499	Kenda	IN	Asia/Kolkata	359043379931766353
-10.91722	-37.65	Lagarto	BR	America/Maceio	8630330696303481693
38.54491	-121.74052	Davis	US	America/Los_Angeles	8630330696303481412
39.45621	-77.96389	Martinsburg	US	America/New_York	8630330696303482279
18.18158	76.03889	Osmanabad	IN	Asia/Kolkata	8630330696303481206
-37.9	145.18333	Wheelers Hill	AU	Australia/Melbourne	3590433799317662386
37.56667	140.11667	Inawashiro	JP	Asia/Tokyo	8630330696303482303
35.95664	36.7138	Binnish	SY	Asia/Damascus	359043379931766353
53.95278	32.86389	Roslavl‚Äô	RU	Europe/Moscow	863033069630348610
41.16704	-73.20483	Bridgeport	US	America/New_York	863033069630348032
-1.63333	13.58357	Franceville	GA	Africa/Libreville	863033069630348636
15.73628	75.96976	Gajendragarh	IN	Asia/Kolkata	3590433799317661149
36.24624	139.07204	Fujioka	JP	Asia/Tokyo	8630330696303481925
23.18	88.58	Aistala	IN	Asia/Kolkata	8630330696303481677
23.15678	-81.24441	Varadero	CU	America/Havana	8630330696303481875
10.15031	-73.9614	El Copey	CO	America/Bogota	3590433799317661263
40.64621	-73.97069	Kensington	US	America/New_York	863033069630348271
-11.48472	-37.93278	Rio Real	BR	America/Bahia	359043379931766924
38.38479	-0.76773	Novelda	ES	Europe/Madrid	359043379931766072
31.64615	120.74221	Changshu City	CN	Asia/Shanghai	3590433799317661230
41.94175	123.50266	Hushitai	CN	Asia/Shanghai	359043379931766122
51.35084	-1.99421	Devizes	GB	Europe/London	359043379931766890
-7.73379	113.69785	Besuki	ID	Asia/Jakarta	3590433799317661743
22.37066	114.10479	Tsuen Wan	HK	Asia/Hong_Kong	3590433799317662345
-33.38056	-56.52361	Durazno	UY	America/Montevideo	863033069630348016
36.20389	127.08472	Nonsan	KR	Asia/Seoul	3590433799317661131
51.44889	5.51978	Tongelre	NL	Europe/Amsterdam	359043379931766544
21.53889	71.57737	Gariadhar	IN	Asia/Kolkata	8630330696303481784
31.84568	-102.36764	Odessa	US	America/Chicago	863033069630348875
23.29549	113.82465	Licheng	CN	Asia/Shanghai	863033069630348024
10.20898	123.758	Naga	PH	Asia/Manila	863033069630348305
-21.42917	-45.94722	Alfenas	BR	America/Sao_Paulo	359043379931766320
22.88783	84.13864	Jashpurnagar	IN	Asia/Kolkata	863033069630348230
-7.81667	112.01667	Kediri	ID	Asia/Jakarta	3590433799317661024
58.04254	65.27258	Tavda	RU	Asia/Yekaterinburg	863033069630348123
51.168	7.973	Finnentrop	DE	Europe/Berlin	359043379931766981
21.46527	83.97573	Sambalpur	IN	Asia/Kolkata	863033069630348438
52.41667	0.75	Thetford	GB	Europe/London	3590433799317662204
3.51667	11.5	Mbalmayo	CM	Africa/Douala	3590433799317661321
56.85836	35.90057	Tver	RU	Europe/Moscow	863033069630348776
53.69786	-2.68758	Leyland	GB	Europe/London	3590433799317661875
35.64889	117.27583	Sishui	CN	Asia/Shanghai	359043379931766627
-17.83333	48.41667	Ambatondrazaka	MG	Indian/Antananarivo	3590433799317661651
45.69558	4.7934	Saint-Genis-Laval	FR	Europe/Paris	3590433799317662436
43.48961	-8.2194	Ferrol	ES	Europe/Madrid	863033069630348370
7.83389	-72.47417	Villa del Rosario	CO	America/Bogota	8630330696303482030
18.57677	-72.22625	Croix-des-Bouquets	HT	America/Port-au-Prince	8630330696303481826
18.65297	-72.09391	Thomazeau	HT	America/Port-au-Prince	3590433799317662170
-34.64167	-60.47389	Chacabuco	AR	America/Argentina/Buenos_Aires	3590433799317661453
45.53929	-122.38731	Troutdale	US	America/Los_Angeles	8630330696303481420
40.85158	122.74754	Haicheng	CN	Asia/Shanghai	3590433799317662477
33.76446	-117.79394	North Tustin	US	America/Los_Angeles	3590433799317661289
48.28259	9.72749	Ehingen	DE	Europe/Berlin	3590433799317661073
33.93113	-117.54866	Norco	US	America/Los_Angeles	863033069630348362
36	139.55722	Okegawa	JP	Asia/Tokyo	3590433799317661032
2.41669	30.98551	Paidha	UG	Africa/Kampala	8630330696303481156
41.20485	-8.33147	Paredes	PT	Europe/Lisbon	8630330696303481073
34.4833	136.84186	Toba	JP	Asia/Tokyo	359043379931766460
30.75545	20.22625	Ajdabiya	LY	Africa/Tripoli	359043379931766056
40.70995	0.57856	Amposta	ES	Europe/Madrid	8630330696303482238
27.55898	68.21204	Larkana	PK	Asia/Karachi	863033069630348701
49.952431	15.268654	Kutná Hora	CZ	Europe/Prague	863033069630348644
47.48444	36.25361	Polohy	UA	Europe/Zaporozhye	8630330696303481511
36.72544	3.55665	Thenia	DZ	Africa/Algiers	8630330696303482220
34.15429	3.50309	Messaad	DZ	Africa/Algiers	8630330696303481669
43.82634	144.09638	Motomachi	JP	Asia/Tokyo	8630330696303482139
36.19278	117.65694	Laiwu	CN	Asia/Shanghai	3590433799317661859
16.0567	103.65309	Roi Et	TH	Asia/Bangkok	8630330696303482170
37.30553	120.82747	Zhuangyuan	CN	Asia/Shanghai	3590433799317661099
40.53123	17.58522	Francavilla Fontana	IT	Europe/Rome	359043379931766841
10.61285	12.19458	Biu	NG	Africa/Lagos	359043379931766130
40.65538	-74.38987	Scotch Plains	US	America/New_York	8630330696303481305
19.21667	73.08333	Dombivli	IN	Asia/Kolkata	863033069630348065
34.85	117.33333	Taozhuang	CN	Asia/Shanghai	863033069630348040
55.67938	12.53463	Frederiksberg	DK	Europe/Copenhagen	3590433799317662089
23.02677	113.13148	Foshan	CN	Asia/Shanghai	8630330696303482493
31.76212	-95.63079	Palestine	US	America/Chicago	8630330696303481800
48.98333	2.61667	Mitry-Mory	FR	Europe/Paris	863033069630348537
10.7375	122.9666	Talisay	PH	Asia/Manila	863033069630348677
29.69221	72.54566	Hasilpur	PK	Asia/Karachi	3590433799317661958
50.598427	13.610242	Litvínov	CZ	Europe/Prague	8630330696303481370
48.06919	11.37703	Gauting	DE	Europe/Berlin	863033069630348867
27.71809	-82.35176	Sun City Center	US	America/New_York	8630330696303482196
53.37596	51.3452	Otradnyy	RU	Europe/Samara	3590433799317661271
34.81667	137.4	Toyokawa	JP	Asia/Tokyo	863033069630348339
-24.19436	29.00974	Mokopane	ZA	Africa/Johannesburg	863033069630348339
12.74409	-8.07257	Kati	ML	Africa/Bamako	863033069630348081
8.79577	-75.69947	San Carlos	CO	America/Bogota	863033069630348255
42.62833	20.89389	Glogovac	XK	Europe/Belgrade	359043379931766528
-17.83333	48.41667	Ambatondrazaka	MG	Indian/Antananarivo	359043379931766619
41.20485	-8.33147	Paredes	PT	Europe/Lisbon	3590433799317661727
28.88162	120.03308	Guli	CN	Asia/Shanghai	359043379931766015
43.71032	-1.05366	Dax	FR	Europe/Paris	359043379931766338
11.15583	42.7125	'Ali Sabieh	DJ	Africa/Djibouti	863033069630348594
33.41012	-91.06177	Greenville	US	America/Chicago	3590433799317661412
21.59983	71.21169	Amreli	IN	Asia/Kolkata	863033069630348735
3.8801	-77.03116	Buenaventura	CO	America/Bogota	3590433799317661537
46.18396	6.10237	Onex	CH	Europe/Zurich	8630330696303482105
-1.9487	30.4347	Rwamagana	RW	Africa/Kigali	8630330696303481792
41.66394	-83.55521	Toledo	US	America/New_York	8630330696303481776
45.4473	-73.75335	Dorval	CA	America/Toronto	8630330696303482360
39.22493	42.85693	Patnos	TR	Europe/Istanbul	8630330696303481099
-32.45242	-71.23106	La Ligua	CL	America/Santiago	3590433799317662022
26.2649	81.54855	Jais	IN	Asia/Kolkata	863033069630348149
-20.87306	-48.29694	Viradouro	BR	America/Sao_Paulo	8630330696303481651
7.65649	4.92235	Efon-Alaaye	NG	Africa/Lagos	863033069630348495
-5.85746	144.23058	Mount Hagen	PG	Pacific/Port_Moresby	863033069630348362
12.18441	18.69303	Mongo	TD	Africa/Ndjamena	3590433799317662345
53.63333	9.85	Halstenbek	DE	Europe/Berlin	359043379931766262
2.2139	102.3278	Kampung Ayer Molek	MY	Asia/Kuala_Lumpur	359043379931766890
48.98994	2.1699	Herblay	FR	Europe/Paris	863033069630348230
51.24197	4.82313	Lille	BE	Europe/Brussels	863033069630348560
59.80917	30.38167	Shushary	RU	Europe/Moscow	8630330696303481297
44.98901	38.94324	Yablonovskiy	RU	Europe/Moscow	3590433799317661917
36.06523	-119.01677	Porterville	US	America/Los_Angeles	3590433799317661859
38.07789	13.44275	Villabate	IT	Europe/Rome	3590433799317662436
45.39402	9.29109	San Giuliano Milanese	IT	Europe/Rome	8630330696303481685
37.49073	-2.77259	Baza	ES	Europe/Madrid	359043379931766973
40.93333	73	Jalal-Abad	KG	Asia/Bishkek	359043379931766205
5.90702	116.10146	Donggongon	MY	Asia/Kuching	3590433799317661271
24.28859	116.11768	Meizhou	CN	Asia/Shanghai	8630330696303482113
-7.60361	37.00438	Kidodi	TZ	Africa/Dar_es_Salaam	863033069630348339
12.25282	79.41727	Gingee	IN	Asia/Kolkata	359043379931766056
33.78333	114.51667	Wacheng	CN	Asia/Shanghai	359043379931766197
35.88264	-80.08199	Thomasville	US	America/New_York	863033069630348362
51.39148	-0.29825	Surbiton	GB	Europe/London	8630330696303481321
44.75874	19.21437	Bijeljina	BA	Europe/Sarajevo	8630330696303482006
36.61033	-88.31476	Murray	US	America/Chicago	3590433799317662394
-11.94306	-76.70944	Chosica	PE	America/Lima	359043379931766957
36.65	138.31667	Suzaka	JP	Asia/Tokyo	3590433799317661560
32.35126	-95.30106	Tyler	US	America/Chicago	3590433799317661347
42.35843	-71.05977	Boston	US	America/New_York	3590433799317661586
50.86079	17.4674	Brzeg	PL	Europe/Warsaw	863033069630348040
25.75728	75.37991	Deoli	IN	Asia/Kolkata	3590433799317661123
48.98994	2.1699	Herblay	FR	Europe/Paris	8630330696303481750
41.82143	41.77921	Kobuleti	GE	Asia/Tbilisi	863033069630348545
18.20854	-71.10077	Santa Cruz de Barahona	DO	America/Santo_Domingo	863033069630348842
23.18	88.58	Aistala	IN	Asia/Kolkata	359043379931766841
38.55632	69.01354	Vahdat	TJ	Asia/Dushanbe	3590433799317662212
28.88162	120.03308	Guli	CN	Asia/Shanghai	863033069630348289
54.03876	43.91385	Kovylkino	RU	Europe/Moscow	359043379931766635
46.7055	38.2739	Yeysk	RU	Europe/Moscow	863033069630348784
23.73333	114.68333	Heyuan	CN	Asia/Shanghai	3590433799317661586
47.64995	-117.23991	Opportunity	US	America/Los_Angeles	8630330696303481941
44.31771	9.32241	Chiavari	IT	Europe/Rome	8630330696303481735
40.93121	-73.89875	Yonkers	US	America/New_York	8630330696303481198
53.19146	-2.52398	Winsford	GB	Europe/London	3590433799317661735
6.46838	-73.26022	Socorro	CO	America/Bogota	8630330696303482303
34.56861	105.89333	Beidao	CN	Asia/Shanghai	8630330696303481032
27.0174	49.62251	Al Jubayl	SA	Asia/Riyadh	863033069630348701
5.30383	-1.98956	Tarkwa	GH	Africa/Accra	3590433799317662469
-8.99167	125.21972	Maliana	TL	Asia/Dili	359043379931766676
20.14298	-77.43532	Media Luna	CU	America/Havana	8630330696303481370
6.46838	-73.26022	Socorro	CO	America/Bogota	3590433799317661578
8.43333	99.96667	Nakhon Si Thammarat	TH	Asia/Bangkok	3590433799317661289
50.073658	14.418540	Praha	CZ	Europe/Prague	359043379931766056
43.91452	-69.96533	Brunswick	US	America/New_York	8630330696303481727
55.38752	36.73307	Naro-Fominsk	RU	Europe/Moscow	8630330696303481479
20.88098	75.11937	Parola	IN	Asia/Kolkata	359043379931766478
22.83957	91.84128	Manikchari	BD	Asia/Dhaka	863033069630348552
50.23271	12.87117	Karlovy Vary	CZ	Europe/Prague	863033069630348115
10.13361	124.84472	Maasin	PH	Asia/Manila	359043379931766957
49.5099	6.74549	Losheim	DE	Europe/Berlin	359043379931766668
47.46657	84.87144	Zaysan	KZ	Asia/Almaty	3590433799317661495
43.1122	12.38878	Perugia	IT	Europe/Rome	359043379931766627
-8.43333	114.33333	Muncar	ID	Asia/Jakarta	8630330696303482014
18.42745	-67.15407	Aguadilla	PR	America/Puerto_Rico	359043379931766064
10.66668	-61.51889	Port of Spain	TT	America/Port_of_Spain	863033069630348495
-8.66667	-35.71667	Catende	BR	America/Recife	3590433799317661719
-20.87306	-48.29694	Viradouro	BR	America/Sao_Paulo	863033069630348966
8.48714	-13.2356	Freetown	SL	Africa/Freetown	8630330696303481784
26.9423	68.11759	Tharu Shah	PK	Asia/Karachi	3590433799317661461
48.35693	10.98461	Friedberg	DE	Europe/Berlin	863033069630348800
20.22816	-103.5687	Zacoalco de Torres	MX	America/Mexico_City	8630330696303481206
38.38479	-0.76773	Novelda	ES	Europe/Madrid	863033069630348396
36.20389	127.08472	Nonsan	KR	Asia/Seoul	8630330696303482378
56.03361	35.96944	Volokolamsk	RU	Europe/Moscow	3590433799317661040
34.86472	117.55417	Zaozhuang	CN	Asia/Shanghai	359043379931766692
53.59782	34.33825	Dyat‚Äôkovo	RU	Europe/Moscow	3590433799317662253
53.69786	-2.68758	Leyland	GB	Europe/London	863033069630348024
-20.87306	-48.29694	Viradouro	BR	America/Sao_Paulo	359043379931766098
-15.21194	-75.11028	Minas de Marcona	PE	America/Lima	863033069630348248
47.56494	31.33078	Voznesensk	UA	Europe/Kyiv	8630330696303481420
-8.66667	-35.71667	Catende	BR	America/Recife	3590433799317661750
42.64685	-5.55835	Villaquilambre	ES	Europe/Madrid	359043379931766056
25.87498	86.59611	Saharsa	IN	Asia/Kolkata	359043379931766296
40.81	-73.9625	Morningside Heights	US	America/New_York	3590433799317661578
53.95278	32.86389	Roslavl‚Äô	RU	Europe/Moscow	359043379931766015
45.50369	11.412	Montecchio Maggiore-Alte Ceccato	IT	Europe/Rome	8630330696303481602
17.54907	82.85749	Elamanchili	IN	Asia/Kolkata	3590433799317661479
25.87498	86.59611	Saharsa	IN	Asia/Kolkata	863033069630348313
-33.88096	151.07986	Strathfield	AU	Australia/Sydney	8630330696303481172
42.06166	-1.60452	Tudela	ES	Europe/Madrid	8630330696303482048
-4.5833	15.16554	Kasangulu	CD	Africa/Kinshasa	8630330696303481073
53.95278	32.86389	Roslavl‚Äô	RU	Europe/Moscow	8630330696303481875
50.20528	19.27498	Jaworzno	PL	Europe/Warsaw	3590433799317661719
-23.85972	35.34722	Maxixe	MZ	Africa/Maputo	3590433799317661677
30.76468	74.12286	Kanganpur	PK	Asia/Karachi	8630330696303482345
59.33333	18.28333	Boo	SE	Europe/Stockholm	3590433799317661420
41.27621	-72.86843	East Haven	US	America/New_York	3590433799317661164
23.0072	-82.4017	Boyeros	CU	America/Havana	359043379931766114
37.49223	15.07041	Catania	IT	Europe/Rome	359043379931766916
50.56149	4.69889	Gembloux	BE	Europe/Brussels	8630330696303482014
36.06386	4.62744	El Achir	DZ	Africa/Algiers	359043379931766932
10.61285	12.19458	Biu	NG	Africa/Lagos	3590433799317661941
58.63667	59.80222	Lesnoy	RU	Asia/Yekaterinburg	3590433799317661776
43.62558	13.39954	Falconara Marittima	IT	Europe/Rome	863033069630348040
43.1009	-75.23266	Utica	US	America/New_York	8630330696303481040
39.08367	-84.50855	Covington	US	America/New_York	8630330696303481388
57.97472	33.2525	Valday	RU	Europe/Moscow	3590433799317661164
-33.38056	-56.52361	Durazno	UY	America/Montevideo	863033069630348867
37.35813	-6.03731	San Juan de Aznalfarache	ES	Europe/Madrid	8630330696303481164
48.98333	2.61667	Mitry-Mory	FR	Europe/Paris	8630330696303481149
48.52961	12.16179	Landshut	DE	Europe/Berlin	8630330696303481107
-4.83	29.65806	Mwandiga	TZ	Africa/Dar_es_Salaam	8630330696303481933
13.51825	99.95469	Damnoen Saduak	TH	Asia/Bangkok	359043379931766759
54.84444	38.16694	Kashira	RU	Europe/Moscow	8630330696303481685
7.50251	5.06258	Igbara-Odo	NG	Africa/Lagos	8630330696303481891
56.9083	60.8019	Beryozovsky	RU	Asia/Yekaterinburg	3590433799317661396
42.67164	14.01481	Roseto degli Abruzzi	IT	Europe/Rome	3590433799317662204
45.50369	11.412	Montecchio Maggiore-Alte Ceccato	IT	Europe/Rome	3590433799317661685
30.81383	75.16878	Moga	IN	Asia/Kolkata	8630330696303481123
36.91023	-121.75689	Watsonville	US	America/Los_Angeles	3590433799317661388
51.08468	7.11393	Burscheid	DE	Europe/Berlin	8630330696303481909
0.76755	24.43973	Yangambi	CD	Africa/Lubumbashi	8630330696303481404
53.95278	32.86389	Roslavl‚Äô	RU	Europe/Moscow	863033069630348131
37.71715	-122.40433	Visitacion Valley	US	America/Los_Angeles	8630330696303481263
-0.35817	42.54536	Kismayo	SO	Africa/Mogadishu	863033069630348370
40.60538	-73.75513	Far Rockaway	US	America/New_York	3590433799317662055
53.69786	-2.68758	Leyland	GB	Europe/London	863033069630348404
12.25282	79.41727	Gingee	IN	Asia/Kolkata	863033069630348040
-32.45242	-71.23106	La Ligua	CL	America/Santiago	3590433799317661271
33.44872	-86.78777	Vestavia Hills	US	America/Chicago	3590433799317661834
29.53885	-95.44744	Fresno	US	America/Chicago	8630330696303482279
42.52787	-70.92866	Peabody	US	America/New_York	863033069630348016
-10.33333	39.28333	Nyangao	TZ	Africa/Dar_es_Salaam	3590433799317661297
43.62558	13.39954	Falconara Marittima	IT	Europe/Rome	863033069630348016
54.48147	53.47103	Oktyabr‚Äôskiy	RU	Asia/Yekaterinburg	359043379931766668
-33.88096	151.07986	Strathfield	AU	Australia/Sydney	863033069630348339
21.34222	71.30633	Kundla	IN	Asia/Kolkata	8630330696303481057
41.63976	2.35739	Cardedeu	ES	Europe/Madrid	359043379931766171
59.33333	18.28333	Boo	SE	Europe/Stockholm	8630330696303481552
40.1675	34.37389	Sungurlu	TR	Europe/Istanbul	359043379931766825
13.73417	-89.71472	Sonzacate	SV	America/El_Salvador	8630330696303481388
34.86472	117.55417	Zaozhuang	CN	Asia/Shanghai	8630330696303482444
3.7278	98.6738	Labuhan Deli	ID	Asia/Jakarta	8630330696303482014
6.03333	37.55	Arba Minch	ET	Africa/Addis_Ababa	3590433799317661354
34.25628	-78.04471	Leland	US	America/New_York	3590433799317662436
13.65805	102.56365	Paoy Paet	KH	Asia/Phnom_Penh	359043379931766304
-4.5833	15.16554	Kasangulu	CD	Africa/Kinshasa	8630330696303482329
40.34912	-111.90466	Saratoga Springs	US	America/Denver	359043379931766866
41.54566	-71.29144	Middletown	US	America/New_York	863033069630348081
38.40917	112.73333	Xinzhou	CN	Asia/Shanghai	8630330696303481891
60.18427	24.95034	Kallio	FI	Europe/Helsinki	863033069630348396
10.20898	123.758	Naga	PH	Asia/Manila	863033069630348362
41.91738	3.1631	Palafrugell	ES	Europe/Madrid	8630330696303482204
41.24264	16.50104	Bisceglie	IT	Europe/Rome	359043379931766916
23.02677	113.13148	Foshan	CN	Asia/Shanghai	8630330696303482253
26.32293	91.00632	Barpeta	IN	Asia/Kolkata	8630330696303481347
35.74788	-95.36969	Muskogee	US	America/Chicago	8630330696303481784
51.40148	-1.32471	Newbury	GB	Europe/London	863033069630348578
41.9001	-71.08977	Taunton	US	America/New_York	3590433799317661420
-11.94306	-76.70944	Chosica	PE	America/Lima	3590433799317661024
46.7055	38.2739	Yeysk	RU	Europe/Moscow	359043379931766080
32.9156	-117.14392	Mira Mesa	US	America/Los_Angeles	3590433799317662444
-12.91667	-39.25	Muritiba	BR	America/Bahia	3590433799317662402
5.84752	-5.682	Lakota	CI	Africa/Abidjan	863033069630348073
29.98869	122.20488	Zhoushan	CN	Asia/Shanghai	359043379931766338
47.48444	36.25361	Polohy	UA	Europe/Zaporozhye	8630330696303482048
44.35056	142.45778	Nayoro	JP	Asia/Tokyo	3590433799317661172
39.08367	-84.50855	Covington	US	America/New_York	8630330696303481487
50.80904	8.77069	Marburg an der Lahn	DE	Europe/Berlin	359043379931766684
-17.83333	48.41667	Ambatondrazaka	MG	Indian/Antananarivo	3590433799317662329
43.61062	-72.97261	Rutland	US	America/New_York	3590433799317661495
55.75556	60.70278	Ozersk	RU	Asia/Yekaterinburg	3590433799317662485
40.37528	28.88222	Mudanya	TR	Europe/Istanbul	3590433799317661552
-32.05251	115.88782	Willetton	AU	Australia/Perth	8630330696303482337
-16.25	-69.08333	Yunguyo	PE	America/Lima	359043379931766619
-21.15	46.58333	Ikalamavony	MG	Indian/Antananarivo	3590433799317661727
28.98002	77.70636	Meerut	IN	Asia/Kolkata	359043379931766452
34.06635	-84.67837	Acworth	US	America/New_York	863033069630348867
48.73218	11.18709	Neuburg an der Donau	DE	Europe/Berlin	863033069630348412
42.7	27.25	Aytos	BG	Europe/Sofia	863033069630348073
10.15031	-73.9614	El Copey	CO	America/Bogota	863033069630348214
9.89206	43.38531	Baki	SO	Africa/Mogadishu	3590433799317661370
58.7002	59.4839	Kachkanar	RU	Asia/Yekaterinburg	8630330696303481701
-0.35817	42.54536	Kismayo	SO	Africa/Mogadishu	863033069630348735
43.41949	77.0202	Otegen Batyra	KZ	Asia/Almaty	3590433799317661370
39.08367	-84.50855	Covington	US	America/New_York	8630330696303481487
45.53069	9.40531	Gorgonzola	IT	Europe/Rome	3590433799317662220
4.96667	10.7	Tonga	CM	Africa/Douala	8630330696303481990
-10.33333	39.28333	Nyangao	TZ	Africa/Dar_es_Salaam	3590433799317662022
33.42585	-6.00137	Oulmes	MA	Africa/Casablanca	8630330696303481123
35.61452	-88.81395	Jackson	US	America/Chicago	3590433799317662253
14.0823	98.19151	Dawei	MM	Asia/Yangon	863033069630348875
28.71271	77.656	Pilkhua	IN	Asia/Kolkata	8630330696303482402
-2.68333	33	Usagara	TZ	Africa/Dar_es_Salaam	3590433799317661214
-7.0981	109.3243	Randudongkal	ID	Asia/Jakarta	8630330696303482410
19.21667	73.08333	Dombivli	IN	Asia/Kolkata	8630330696303482295
47.4943	-122.24092	Bryn Mawr-Skyway	US	America/Los_Angeles	863033069630348636
19.8173	-97.35992	Teziutlan	MX	America/Mexico_City	3590433799317662329
37.73222	115.70111	Hengshui	CN	Asia/Shanghai	863033069630348487
50.74497	3.20639	Mouscron	BE	Europe/Brussels	3590433799317662410
65.93381	111.4834	Aykhal	RU	Asia/Yakutsk	8630330696303481891
37.08819	-8.2503	Albufeira	PT	Europe/Lisbon	3590433799317662311
34.85	117.33333	Taozhuang	CN	Asia/Shanghai	359043379931766460
6.03333	37.55	Arba Minch	ET	Africa/Addis_Ababa	8630330696303481537
50.74497	3.20639	Mouscron	BE	Europe/Brussels	3590433799317661396
35.61452	-88.81395	Jackson	US	America/Chicago	3590433799317661313
35.815	139.6853	Shimotoda	JP	Asia/Tokyo	3590433799317662022
17.34769	78.55757	Lal Bahadur Nagar	IN	Asia/Kolkata	8630330696303482485
3.27833	32.88667	Kitgum	UG	Africa/Kampala	863033069630348172
41.54566	-71.29144	Middletown	US	America/New_York	3590433799317661735
18.00747	-76.78319	New Kingston	JM	America/Jamaica	8630330696303481792
39.32288	-76.72803	Woodlawn	US	America/New_York	3590433799317662113
50.50301	13.63617	Most	CZ	Europe/Prague	359043379931766262
16.455	120.5875	La Trinidad	PH	Asia/Manila	359043379931766965
51.30001	13.10984	Oschatz	DE	Europe/Berlin	8630330696303481313
40.5576	-74.28459	Woodbridge	US	America/New_York	3590433799317661198
28.15112	-82.46148	Lutz	US	America/New_York	8630330696303481909
38.58894	-89.99038	Fairview Heights	US	America/Chicago	863033069630348917
10.10649	76.35484	Alwaye	IN	Asia/Kolkata	3590433799317661164
50.073658	14.418540	Praha	CZ	Europe/Prague	3590433799317661826
45.16024	-93.08883	Lino Lakes	US	America/Chicago	3590433799317661560
35.61452	-88.81395	Jackson	US	America/Chicago	863033069630348115
46.32313	-0.45877	Niort	FR	Europe/Paris	8630330696303482477
50.11861	-5.53715	Penzance	GB	Europe/London	863033069630348230
9.82564	78.25795	Tiruppuvanam	IN	Asia/Kolkata	3590433799317661040
49.5099	6.74549	Losheim	DE	Europe/Berlin	8630330696303481495
43.50891	16.43915	Split	HR	Europe/Zagreb	3590433799317662402
43.61058	1.33467	Colomiers	FR	Europe/Paris	3590433799317661842
43.4125	23.225	Montana	BG	Europe/Sofia	3590433799317661297
35.95664	36.7138	Binnish	SY	Asia/Damascus	3590433799317661263
41.72059	-87.70172	Evergreen Park	US	America/Chicago	863033069630348925
34.5624	38.28402	Tadmur	SY	Asia/Damascus	359043379931766163
49.593777	17.250879	Olomouc	CZ	Europe/Prague	8630330696303481313
0.49113	29.47306	Beni	CD	Africa/Lubumbashi	8630330696303481396
38.47917	-1.325	Jumilla	ES	Europe/Madrid	863033069630348081
50.09019	8.4493	Hofheim am Taunus	DE	Europe/Berlin	863033069630348370
50.82882	-0.32247	Lancing	GB	Europe/London	3590433799317661057
53.59337	9.47629	Stade	DE	Europe/Berlin	8630330696303482238
-20.25333	-43.80139	Itabirito	BR	America/Sao_Paulo	8630330696303482212
41.55838	-81.56929	Collinwood	US	America/New_York	8630330696303481800
46.65581	32.6178	Kherson	UA	Europe/Kyiv	359043379931766601
35.61452	-88.81395	Jackson	US	America/Chicago	359043379931766148
35.48199	137.02166	Minokamo	JP	Asia/Tokyo	863033069630348636
35.64889	117.27583	Sishui	CN	Asia/Shanghai	359043379931766833
36.24624	139.07204	Fujioka	JP	Asia/Tokyo	3590433799317661453
10.15031	-73.9614	El Copey	CO	America/Bogota	8630330696303481891
36.20389	127.08472	Nonsan	KR	Asia/Seoul	8630330696303482469
28.54944	-81.77285	Clermont	US	America/New_York	8630330696303482139
37.60876	-77.37331	Mechanicsville	US	America/New_York	8630330696303481289
19.64745	-102.04897	Paracho de Verduzco	MX	America/Mexico_City	8630330696303482246
37.16911	10.03478	El Alia	TN	Africa/Tunis	863033069630348586
47.92526	-97.03285	Grand Forks	US	America/Chicago	8630330696303481800
51.14942	15.00835	Zgorzelec	PL	Europe/Warsaw	359043379931766080
42.67164	14.01481	Roseto degli Abruzzi	IT	Europe/Rome	3590433799317662386
42.35843	-71.05977	Boston	US	America/New_York	3590433799317662170
42.8139	-1.64295	Segundo Ensanche	ES	Europe/Madrid	8630330696303481263
31.76212	-95.63079	Palestine	US	America/Chicago	359043379931766791
46.51872	86.00214	Hoxtolgay	CN	Asia/Urumqi	8630330696303482014
11.93381	79.82979	Puducherry	IN	Asia/Kolkata	8630330696303481586
0.46005	34.11169	Busia	KE	Africa/Nairobi	359043379931766957
50.5107	18.30056	Strzelce Opolskie	PL	Europe/Warsaw	3590433799317661602
12.95629	78.27539	Robertsonpet	IN	Asia/Kolkata	359043379931766197
41.77583	140.73667	Hakodate	JP	Asia/Tokyo	8630330696303481073
41.6764	-91.58045	Coralville	US	America/Chicago	3590433799317662238
33.35283	-111.78903	Gilbert	US	America/Phoenix	863033069630348891
-19.7625	-44.31389	Esmeraldas	BR	America/Sao_Paulo	8630330696303481255
-5.85746	144.23058	Mount Hagen	PG	Pacific/Port_Moresby	8630330696303482329
44.85278	65.50917	Kyzylorda	KZ	Asia/Qyzylorda	359043379931766684
41.85059	-87.882	Westchester	US	America/Chicago	359043379931766171
20.14298	-77.43532	Media Luna	CU	America/Havana	359043379931766353
8.43333	99.96667	Nakhon Si Thammarat	TH	Asia/Bangkok	8630330696303482451
41.9001	-71.08977	Taunton	US	America/New_York	863033069630348727
54.60528	18.34717	Reda	PL	Europe/Warsaw	359043379931766114
6.95194	121.96361	Recodo	PH	Asia/Manila	863033069630348396
27.85	112.9	Xiangtan	CN	Asia/Shanghai	8630330696303482428
15.46063	99.89166	Thap Than	TH	Asia/Bangkok	8630330696303481032
36.92574	14.72443	Ragusa	IT	Europe/Rome	3590433799317661040
33.03699	-117.29198	Encinitas	US	America/Los_Angeles	863033069630348271
11.12018	76.11996	Manjeri	IN	Asia/Kolkata	863033069630348578
35.30889	139.55028	Kamakura	JP	Asia/Tokyo	3590433799317661362
-7.60361	37.00438	Kidodi	TZ	Africa/Dar_es_Salaam	3590433799317661388
51.40148	-1.32471	Newbury	GB	Europe/London	3590433799317662147
38.58894	-89.99038	Fairview Heights	US	America/Chicago	359043379931766288
53.0233	-1.48119	Belper	GB	Europe/London	8630330696303481214
53.53333	-7.35	An Muileann gCearr	IE	Europe/Dublin	8630330696303481016
49.07866	30.96755	Zvenihorodka	UA	Europe/Kyiv	8630330696303482386
8.88649	2.59753	Tchaourou	BJ	Africa/Porto-Novo	3590433799317661438
36.6009	126.665	Hongseong	KR	Asia/Seoul	359043379931766692
53.7446	-0.33525	Kingston upon Hull	GB	Europe/London	863033069630348420
14.93333	-91.11667	Chichicastenango	GT	America/Guatemala	8630330696303481511
-37.32167	-59.13316	Tandil	AR	America/Argentina/Buenos_Aires	359043379931766478
33.43443	-5.22126	Azrou	MA	Africa/Casablanca	3590433799317661727
-19.72806	-50.19556	Iturama	BR	America/Sao_Paulo	863033069630348628
-4.24444	-42.29444	Barras	BR	America/Fortaleza	8630330696303482378
52.86147	9.5926	Walsrode	DE	Europe/Berlin	8630330696303482139
26.32293	91.00632	Barpeta	IN	Asia/Kolkata	3590433799317662139
-26.22861	-52.67056	Pato Branco	BR	America/Sao_Paulo	8630330696303481008
-37.9	145.18333	Wheelers Hill	AU	Australia/Melbourne	863033069630348917
-2.13404	-79.59415	Milagro	EC	America/Guayaquil	863033069630348453
-8.43333	114.33333	Muncar	ID	Asia/Jakarta	8630330696303481172
39.12074	27.18052	Bergama	TR	Europe/Istanbul	359043379931766155
48.77275	5.16108	Bar-le-Duc	FR	Europe/Paris	863033069630348982
53.46506	-1.47217	Chapletown	GB	Europe/London	359043379931766825
48.28259	9.72749	Ehingen	DE	Europe/Berlin	3590433799317661099
53.77166	38.12408	Bogoroditsk	RU	Europe/Moscow	3590433799317661909
36.24624	139.07204	Fujioka	JP	Asia/Tokyo	3590433799317662097
28.15112	-82.46148	Lutz	US	America/New_York	3590433799317661073
42.62833	20.89389	Glogovac	XK	Europe/Belgrade	8630330696303482048
-34.64167	-60.47389	Chacabuco	AR	America/Argentina/Buenos_Aires	359043379931766015
36.08497	9.37082	Siliana	TN	Africa/Tunis	8630330696303482014
31.84568	-102.36764	Odessa	US	America/Chicago	863033069630348032
40.37528	28.88222	Mudanya	TR	Europe/Istanbul	3590433799317661792
44.75874	19.21437	Bijeljina	BA	Europe/Sarajevo	3590433799317661867
57.47908	-4.22398	Inverness	GB	Europe/London	863033069630348842
9.15093	-79.62098	Chilibre	PA	America/Panama	863033069630348313
-25.42944	-50.00639	Palmeira	BR	America/Sao_Paulo	359043379931766742
49.952431	15.268654	Kutná Hora	CZ	Europe/Prague	3590433799317661487
41.63976	2.35739	Cardedeu	ES	Europe/Madrid	3590433799317661636
-5.41667	38.01667	Chanika	TZ	Africa/Dar_es_Salaam	863033069630348743
48.49144	9.20427	Reutlingen	DE	Europe/Berlin	8630330696303482212
40.53123	17.58522	Francavilla Fontana	IT	Europe/Rome	863033069630348636
14.8361	120.97844	Guyong	PH	Asia/Manila	863033069630348529
47.46657	84.87144	Zaysan	KZ	Asia/Almaty	8630330696303482014
34.61667	135.6	Yao	JP	Asia/Tokyo	3590433799317661578
53.19146	-2.52398	Winsford	GB	Europe/London	3590433799317661149
45.16024	-93.08883	Lino Lakes	US	America/Chicago	3590433799317662154
-20.88231	55.4504	Saint-Denis	RE	Indian/Reunion	8630330696303481065
33.42585	-6.00137	Oulmes	MA	Africa/Casablanca	863033069630348677
48.90472	2.2469	La Garenne-Colombes	FR	Europe/Paris	8630330696303482345
32.87533	71.57118	Daud Khel	PK	Asia/Karachi	3590433799317662048
33.52253	-117.70755	Laguna Niguel	US	America/Los_Angeles	359043379931766296
50.75767	-1.5443	Lymington	GB	Europe/London	3590433799317661917
-10.33333	39.28333	Nyangao	TZ	Africa/Dar_es_Salaam	3590433799317661461
-5.41667	38.01667	Chanika	TZ	Africa/Dar_es_Salaam	8630330696303481412
41.92361	20.91361	Bogovinje	MK	Europe/Skopje	8630330696303481701
41.09246	45.36561	Qazax	AZ	Asia/Baku	8630330696303481727
17.34769	78.55757	Lal Bahadur Nagar	IN	Asia/Kolkata	8630330696303481081
49.195061	16.606836	Brno	CZ	Europe/Prague	863033069630348297
41.47892	-87.45476	Schererville	US	America/Chicago	8630330696303481412
45.40008	-73.58248	Sainte-Catherine	CA	America/Toronto	3590433799317661123
47.64995	-117.23991	Opportunity	US	America/Los_Angeles	8630330696303481859
-5.41667	38.01667	Chanika	TZ	Africa/Dar_es_Salaam	359043379931766361
48.8765	2.18967	Rueil-Malmaison	FR	Europe/Paris	8630330696303481867
44.31771	9.32241	Chiavari	IT	Europe/Rome	3590433799317661552
-15.675	-38.94722	Canavieiras	BR	America/Bahia	3590433799317661966
-7.0981	109.3243	Randudongkal	ID	Asia/Jakarta	8630330696303482170
20.88197	85.83334	Bhuban	IN	Asia/Kolkata	3590433799317662246
50.23019	8.77155	Karben	DE	Europe/Berlin	8630330696303481974
29.69221	72.54566	Hasilpur	PK	Asia/Karachi	3590433799317661966
51.78771	56.36091	Saraktash	RU	Asia/Yekaterinburg	863033069630348701
-20.87306	-48.29694	Viradouro	BR	America/Sao_Paulo	8630330696303481313
41.09246	45.36561	Qazax	AZ	Asia/Baku	359043379931766916
15.72892	120.57224	Burgos	PH	Asia/Manila	863033069630348107
31.20176	29.91582	Alexandria	EG	Africa/Cairo	8630330696303481917
41.57439	24.71204	Smolyan	BG	Europe/Sofia	359043379931766106
46.65581	32.6178	Kherson	UA	Europe/Kyiv	3590433799317661735
33.72255	-116.37697	Palm Desert	US	America/Los_Angeles	3590433799317661230
58.04254	65.27258	Tavda	RU	Asia/Yekaterinburg	3590433799317661263
10.63504	-85.43772	Liberia	CR	America/Costa_Rica	863033069630348990
45.44868	-73.81669	Pointe-Claire	CA	America/Toronto	3590433799317661081
50.75767	-1.5443	Lymington	GB	Europe/London	359043379931766916
47.76232	-122.2054	Bothell	US	America/Los_Angeles	359043379931766668
35.64889	117.27583	Sishui	CN	Asia/Shanghai	863033069630348016
51.08468	7.11393	Burscheid	DE	Europe/Berlin	3590433799317661024
28.98002	77.70636	Meerut	IN	Asia/Kolkata	8630330696303481578
23.49668	86.68363	Adra	IN	Asia/Kolkata	3590433799317661941
19.04222	-98.11889	Casa Blanca	MX	America/Mexico_City	359043379931766825
42.8139	-1.64295	Segundo Ensanche	ES	Europe/Madrid	8630330696303481487
41.48199	-81.79819	Lakewood	US	America/New_York	8630330696303481784
6.45407	3.39467	Lagos	NG	Africa/Lagos	8630330696303481479
37.52487	-77.55777	Bon Air	US	America/New_York	863033069630348487
36.76775	2.95924	Cheraga	DZ	Africa/Algiers	359043379931766718
15.79408	104.1451	Yasothon	TH	Asia/Bangkok	863033069630348958
-22.92306	-53.13722	Loanda	BR	America/Sao_Paulo	359043379931766023
52.66277	-2.01111	Great Wyrley	GB	Europe/London	8630330696303481313
42.64031	125.51176	Dongfeng	CN	Asia/Shanghai	3590433799317661594
7.62789	4.74161	Ilesa	NG	Africa/Lagos	863033069630348651
34.9	137.5	Shinshiro	JP	Asia/Tokyo	359043379931766486
52.68333	0.93333	East Dereham	GB	Europe/London	863033069630348685
48.35149	8.96317	Hechingen	DE	Europe/Berlin	863033069630348420
35.64889	117.27583	Sishui	CN	Asia/Shanghai	8630330696303481230
44.35056	142.45778	Nayoro	JP	Asia/Tokyo	8630330696303481370
35.82756	137.95378	Ina	JP	Asia/Tokyo	3590433799317661248
50.80019	7.20769	Siegburg	DE	Europe/Berlin	3590433799317661537
47.05	15.46667	Sankt Peter	AT	Europe/Vienna	8630330696303481008
58.04254	65.27258	Tavda	RU	Asia/Yekaterinburg	359043379931766700
-6.8	39.25	Magomeni	TZ	Africa/Dar_es_Salaam	3590433799317661933
25.95533	68.88871	Jhol	PK	Asia/Karachi	863033069630348354
35	136.51667	Komono	JP	Asia/Tokyo	359043379931766692
60.18427	24.95034	Kallio	FI	Europe/Helsinki	3590433799317662196
50.56149	4.69889	Gembloux	BE	Europe/Brussels	863033069630348123
32.54044	-82.90375	Dublin	US	America/New_York	8630330696303482212
38.37255	34.02537	Aksaray	TR	Europe/Istanbul	3590433799317661420
51.40944	46.04833	Privolzhskiy	RU	Europe/Saratov	359043379931766338
0.51667	101.44167	Pekanbaru	ID	Asia/Jakarta	3590433799317661727
30.29184	71.67164	Qadirpur Ran	PK	Asia/Karachi	359043379931766197
42.93369	-72.27814	Keene	US	America/New_York	863033069630348867
50.7236	-3.52751	Exeter	GB	Europe/London	863033069630348594
11.84962	-86.19903	Jinotepe	NI	America/Managua	3590433799317661941
34.4833	136.84186	Toba	JP	Asia/Tokyo	863033069630348172
14.93333	-91.11667	Chichicastenango	GT	America/Guatemala	359043379931766882
48.975658	14.480255	České Budějovice	CZ	Europe/Prague	863033069630348396
-21.44236	27.46153	Tonota	BW	Africa/Gaborone	359043379931766627
41.50343	-74.01042	Newburgh	US	America/New_York	3590433799317661172
41.72059	-87.70172	Evergreen Park	US	America/Chicago	8630330696303481073
53.53041	43.67663	Nizhniy Lomov	RU	Europe/Moscow	359043379931766577
32.17629	75.06583	Fazilpur	PK	Asia/Karachi	3590433799317662238
60.97944	76.92421	Izluchinsk	RU	Asia/Yekaterinburg	8630330696303481339
41.6764	-91.58045	Coralville	US	America/Chicago	3590433799317661735
52.4581	13.28702	Dahlem	DE	Europe/Berlin	863033069630348974
-33.38056	-56.52361	Durazno	UY	America/Montevideo	863033069630348396
32.61603	44.02488	Karbala	IQ	Asia/Baghdad	8630330696303482337
-7.51611	109.05389	Wangon	ID	Asia/Jakarta	8630330696303481636
-20.87306	-48.29694	Viradouro	BR	America/Sao_Paulo	8630330696303481016
8.88649	2.59753	Tchaourou	BJ	Africa/Porto-Novo	3590433799317661065
45.73333	4.91667	Bron	FR	Europe/Paris	8630330696303482170
10.10649	76.35484	Alwaye	IN	Asia/Kolkata	359043379931766650
10.12268	77.54372	Periyakulam	IN	Asia/Kolkata	359043379931766528
12.18441	18.69303	Mongo	TD	Africa/Ndjamena	3590433799317661354
-0.35817	42.54536	Kismayo	SO	Africa/Mogadishu	3590433799317662006
35.05266	-78.87836	Fayetteville	US	America/New_York	3590433799317661859
30.75545	20.22625	Ajdabiya	LY	Africa/Tripoli	8630330696303482147
34.15429	3.50309	Messaad	DZ	Africa/Algiers	8630330696303482436
32.42067	-104.22884	Carlsbad	US	America/Denver	863033069630348529
51.30001	13.10984	Oschatz	DE	Europe/Berlin	3590433799317661800
-37.9	145.18333	Wheelers Hill	AU	Australia/Melbourne	3590433799317661321
37.95143	-91.77127	Rolla	US	America/Chicago	8630330696303481347
46.51872	86.00214	Hoxtolgay	CN	Asia/Urumqi	359043379931766890
26.68451	-80.66756	Belle Glade	US	America/New_York	8630330696303481289
33.7207	-116.21677	Indio	US	America/Los_Angeles	8630330696303481289
0.51667	101.44167	Pekanbaru	ID	Asia/Jakarta	8630330696303482071
40.70995	0.57856	Amposta	ES	Europe/Madrid	8630330696303481362
40.37528	28.88222	Mudanya	TR	Europe/Istanbul	359043379931766049
52.2	8.63333	Kirchlengern	DE	Europe/Berlin	863033069630348180
26.2649	81.54855	Jais	IN	Asia/Kolkata	3590433799317662246
44.92934	37.99117	Krymsk	RU	Europe/Moscow	863033069630348818
36.92574	14.72443	Ragusa	IT	Europe/Rome	8630330696303481453
32.61603	44.02488	Karbala	IQ	Asia/Baghdad	3590433799317661743
40.68066	-73.47429	Massapequa	US	America/New_York	3590433799317661115
48.98994	2.1699	Herblay	FR	Europe/Paris	3590433799317661347
36.92574	14.72443	Ragusa	IT	Europe/Rome	863033069630348628
37.74615	-25.66689	Ponta Delgada	PT	Atlantic/Azores	8630330696303481735
15.45144	78.14797	Betamcherla	IN	Asia/Kolkata	8630330696303481933
6.45407	3.39467	Lagos	NG	Africa/Lagos	863033069630348321
51.4781	57.3552	Kuvandyk	RU	Asia/Yekaterinburg	863033069630348529
-20.25333	-43.80139	Itabirito	BR	America/Sao_Paulo	3590433799317661180
58.23583	92.48278	Lesosibirsk	RU	Asia/Krasnoyarsk	8630330696303481487
8.88988	-79.62603	Veracruz	PA	America/Panama	3590433799317661644
41.84364	-87.71255	South Lawndale	US	America/Chicago	8630330696303481578
10.20898	123.758	Naga	PH	Asia/Manila	8630330696303482378
48.98693	2.44892	Gonesse	FR	Europe/Paris	3590433799317661511
-23.7975	-48.59278	Buri	BR	America/Sao_Paulo	359043379931766734
40.82232	-74.15987	Nutley	US	America/New_York	8630330696303481891
50.073658	14.418540	Praha	CZ	Europe/Prague	8630330696303482022
46.23899	-63.13414	Charlottetown	CA	America/Halifax	863033069630348305
54.48147	53.47103	Oktyabr‚Äôskiy	RU	Asia/Yekaterinburg	8630330696303481040
-8.05389	-34.88111	Recife	BR	America/Recife	8630330696303481610
32.65246	51.67462	Isfahan	IR	Asia/Tehran	863033069630348248
-33.75881	150.99292	Baulkham Hills	AU	Australia/Sydney	8630330696303481438
57.97472	33.2525	Valday	RU	Europe/Moscow	3590433799317661255
51.84819	1.26738	Walton-on-the-Naze	GB	Europe/London	359043379931766106
5.20856	-74.73584	Honda	CO	America/Bogota	359043379931766585
52.09	5.23333	Zeist	NL	Europe/Amsterdam	8630330696303481131
4.02219	101.02083	Teluk Intan	MY	Asia/Kuala_Lumpur	3590433799317662303
-21.44236	27.46153	Tonota	BW	Africa/Gaborone	3590433799317661982
50.8	3.16667	Wevelgem	BE	Europe/Brussels	359043379931766759
34.95303	-120.43572	Santa Maria	US	America/Los_Angeles	8630330696303482261
50.75932	25.34244	Lutsk	UA	Europe/Kyiv	359043379931766148
-37.32167	-59.13316	Tandil	AR	America/Argentina/Buenos_Aires	863033069630348164
45.47885	133.42825	Lesozavodsk	RU	Asia/Vladivostok	863033069630348917
39.33427	-76.43941	Middle River	US	America/New_York	863033069630348081
3.02013	30.91105	Arua	UG	Africa/Kampala	8630330696303481925
33.08014	-83.2321	Milledgeville	US	America/New_York	359043379931766106
49.65186	26.97253	Krasyliv	UA	Europe/Kyiv	863033069630348941
32.44874	-99.73314	Abilene	US	America/Chicago	3590433799317662030
-17.73648	168.31366	Port-Vila	VU	Pacific/Efate	863033069630348602
43.61062	-72.97261	Rutland	US	America/New_York	8630330696303481800
29.38242	70.91106	Alipur	PK	Asia/Karachi	863033069630348719
30.24706	115.04814	Huangshi	CN	Asia/Shanghai	3590433799317661321
53.6052	10.03988	Barmbek-Nord	DE	Europe/Berlin	8630330696303482436
-33.38056	-56.52361	Durazno	UY	America/Montevideo	8630330696303481552
52.68333	0.93333	East Dereham	GB	Europe/London	3590433799317662311
42.52787	-70.92866	Peabody	US	America/New_York	8630330696303482394
14.93333	-91.11667	Chichicastenango	GT	America/Guatemala	863033069630348941
34.08565	74.80555	Srinagar	IN	Asia/Kolkata	3590433799317661347
39.96097	-75.60804	West Chester	US	America/New_York	3590433799317661503
48.90472	2.2469	La Garenne-Colombes	FR	Europe/Paris	8630330696303481925
18.00747	-76.78319	New Kingston	JM	America/Jamaica	3590433799317661404
43.4125	23.225	Montana	BG	Europe/Sofia	3590433799317662279
32.35126	-95.30106	Tyler	US	America/Chicago	359043379931766007
40.34912	-111.90466	Saratoga Springs	US	America/Denver	863033069630348768
16.06213	76.0586	Hungund	IN	Asia/Kolkata	359043379931766841
51.12794	4.21372	Temse	BE	Europe/Brussels	863033069630348149
36.02506	-86.77917	Brentwood Estates	US	America/Chicago	863033069630348263
6.15038	6.83042	Nkpor	NG	Africa/Lagos	3590433799317661420
44.92801	4.8951	Valence	FR	Europe/Paris	863033069630348883
-20.87306	-48.29694	Viradouro	BR	America/Sao_Paulo	359043379931766122
25.66795	85.83636	Dalsingh Sarai	IN	Asia/Kolkata	359043379931766577
24.28859	116.11768	Meizhou	CN	Asia/Shanghai	863033069630348032
35.88264	-80.08199	Thomasville	US	America/New_York	863033069630348180
-8.43333	114.33333	Muncar	ID	Asia/Jakarta	359043379931766643
42.93369	-72.27814	Keene	US	America/New_York	8630330696303482238
7.50251	5.06258	Igbara-Odo	NG	Africa/Lagos	3590433799317661750
52.59319	13.32127	Wittenau	DE	Europe/Berlin	8630330696303482295
-5.85746	144.23058	Mount Hagen	PG	Pacific/Port_Moresby	359043379931766296
-37.32167	-59.13316	Tandil	AR	America/Argentina/Buenos_Aires	8630330696303481404
52.86147	9.5926	Walsrode	DE	Europe/Berlin	359043379931766833
11.84962	-86.19903	Jinotepe	NI	America/Managua	8630330696303482303
51.168	7.973	Finnentrop	DE	Europe/Berlin	863033069630348248
41.91886	8.73812	Ajaccio	FR	Europe/Paris	863033069630348446
27.52948	68.75915	Khairpur Mir‚Äôs	PK	Asia/Karachi	3590433799317661578
47.56494	31.33078	Voznesensk	UA	Europe/Kyiv	8630330696303481792
54.60528	18.34717	Reda	PL	Europe/Warsaw	3590433799317662105
51.12794	4.21372	Temse	BE	Europe/Brussels	8630330696303481354
-1.26424	104.09701	Simpang	ID	Asia/Jakarta	3590433799317661552
50.598427	13.610242	Litvínov	CZ	Europe/Prague	8630330696303481404
4.92675	6.26764	Yenagoa	NG	Africa/Lagos	359043379931766254
37.49073	-2.77259	Baza	ES	Europe/Madrid	3590433799317661933
10.61285	12.19458	Biu	NG	Africa/Lagos	3590433799317661347
44.92801	4.8951	Valence	FR	Europe/Paris	359043379931766908
37.60876	-77.37331	Mechanicsville	US	America/New_York	8630330696303481644
41.54566	-71.29144	Middletown	US	America/New_York	863033069630348610
43.4125	23.225	Montana	BG	Europe/Sofia	863033069630348057
37.73222	115.70111	Hengshui	CN	Asia/Shanghai	8630330696303481115
21.59983	71.21169	Amreli	IN	Asia/Kolkata	863033069630348388
23.73333	114.68333	Heyuan	CN	Asia/Shanghai	8630330696303481636
31.78336	35.23388	East Jerusalem	PS	Asia/Hebron	359043379931766502
48.98693	2.44892	Gonesse	FR	Europe/Paris	863033069630348362
-4.83	29.65806	Mwandiga	TZ	Africa/Dar_es_Salaam	8630330696303481974
43.4125	23.225	Montana	BG	Europe/Sofia	863033069630348131
25.87498	86.59611	Saharsa	IN	Asia/Kolkata	863033069630348545
12.97389	123.99333	Sorsogon	PH	Asia/Manila	359043379931766049
49.820923	18.262524	Ostrava	CZ	Europe/Prague	359043379931766999
35.85	117.7	Dongdu	CN	Asia/Shanghai	359043379931766585
6.9909	79.883	Hendala	LK	Asia/Colombo	3590433799317661552
46.09273	-88.64235	Iron River	US	America/Menominee	3590433799317661693
48.8765	2.18967	Rueil-Malmaison	FR	Europe/Paris	863033069630348198
53.38333	-0.76667	Gainsborough	GB	Europe/London	3590433799317661024
-25.42778	-49.27306	Curitiba	BR	America/Sao_Paulo	8630330696303481412
18.20854	-71.10077	Santa Cruz de Barahona	DO	America/Santo_Domingo	8630330696303482485
20.88953	-156.47432	Kahului	US	Pacific/Honolulu	863033069630348743
22.98212	-80.58556	Corralillo	CU	America/Havana	359043379931766700
31.78336	35.23388	East Jerusalem	PS	Asia/Hebron	3590433799317661701
0.46005	34.11169	Busia	KE	Africa/Nairobi	8630330696303481727
10.20898	123.758	Naga	PH	Asia/Manila	8630330696303481339
6.25947	102.05461	Tak Bai	TH	Asia/Bangkok	3590433799317662014
41.0051	-73.78458	Scarsdale	US	America/New_York	863033069630348842
45.44694	8.62118	Novara	IT	Europe/Rome	8630330696303481826
49.195061	16.606836	Brno	CZ	Europe/Prague	359043379931766825
41.91738	3.1631	Palafrugell	ES	Europe/Madrid	863033069630348776
19.8173	-97.35992	Teziutlan	MX	America/Mexico_City	863033069630348347
16.75973	-93.11308	Tuxtla	MX	America/Mexico_City	3590433799317662030
-11.48472	-37.93278	Rio Real	BR	America/Bahia	8630330696303481727
49.144482	15.006139	Jindřichův Hradec	CZ	Europe/Prague	3590433799317661727
-33.79176	151.08057	Eastwood	AU	Australia/Sydney	3590433799317661453
3.8801	-77.03116	Buenaventura	CO	America/Bogota	359043379931766338
53.51684	-113.3187	Sherwood Park	CA	America/Edmonton	359043379931766676
41.50343	-74.01042	Newburgh	US	America/New_York	3590433799317661719
54.58048	16.86194	Ustka	PL	Europe/Warsaw	359043379931766387
25.49043	85.94001	Teghra	IN	Asia/Kolkata	359043379931766502
39.33427	-76.43941	Middle River	US	America/New_York	3590433799317662352
46.18396	6.10237	Onex	CH	Europe/Zurich	8630330696303481800
55.25	24.75	Ukmerge	LT	Europe/Vilnius	359043379931766148
53.59782	34.33825	Dyat‚Äôkovo	RU	Europe/Moscow	3590433799317661487
23.02677	113.13148	Foshan	CN	Asia/Shanghai	3590433799317661305
50.75	2.25	Saint-Omer	FR	Europe/Paris	3590433799317661305
51.21187	4.25633	Beveren	BE	Europe/Brussels	3590433799317661024
28.92694	78.23456	Bachhraon	IN	Asia/Kolkata	3590433799317661206
47.30997	8.52462	Adliswil	CH	Europe/Zurich	863033069630348339
-2.90055	-79.00453	Cuenca	EC	America/Guayaquil	3590433799317662345
21.59983	71.21169	Amreli	IN	Asia/Kolkata	3590433799317661370
5.4709	100.24529	Batu Feringgi	MY	Asia/Kuala_Lumpur	8630330696303481248
50.56149	4.69889	Gembloux	BE	Europe/Brussels	3590433799317662097
34.63915	-120.45794	Lompoc	US	America/Los_Angeles	359043379931766981
30.46907	70.96699	Kot Addu	PK	Asia/Karachi	3590433799317661552
33.54428	-84.23381	Stockbridge	US	America/New_York	359043379931766809
36.53333	136.61667	Nonoichi	JP	Asia/Tokyo	359043379931766338
22.10194	85.37752	Barbil	IN	Asia/Kolkata	3590433799317661974
34.25	135.31667	Iwade	JP	Asia/Tokyo	863033069630348446
41.14676	-73.49484	New Canaan	US	America/New_York	3590433799317662469
-21.15	46.58333	Ikalamavony	MG	Indian/Antananarivo	863033069630348941
53.59337	9.47629	Stade	DE	Europe/Berlin	3590433799317662469
39.43534	-84.20299	Lebanon	US	America/New_York	3590433799317661396
51.40944	46.04833	Privolzhskiy	RU	Europe/Saratov	8630330696303482287
54.39304	53.26023	Bavly	RU	Europe/Moscow	8630330696303482428
37.49223	15.07041	Catania	IT	Europe/Rome	359043379931766817
-4.16694	-40.7475	Guaraciaba do Norte	BR	America/Fortaleza	3590433799317662378
47.64995	-117.23991	Opportunity	US	America/Los_Angeles	359043379931766858
-37.32167	-59.13316	Tandil	AR	America/Argentina/Buenos_Aires	3590433799317662279
41.09822	120.74792	Nanpiao	CN	Asia/Shanghai	863033069630348651
5.27247	-3.59625	Bonoua	CI	Africa/Abidjan	3590433799317662196
40.65995	-111.99633	Kearns	US	America/Denver	8630330696303482345
-4.42472	-41.45861	Pedro II	BR	America/Fortaleza	8630330696303482154
60.97944	76.92421	Izluchinsk	RU	Asia/Yekaterinburg	359043379931766916
9.89206	43.38531	Baki	SO	Africa/Mogadishu	8630330696303481560
40.37528	28.88222	Mudanya	TR	Europe/Istanbul	3590433799317662493
10.12268	77.54372	Periyakulam	IN	Asia/Kolkata	359043379931766940
40.92298	14.30935	Afragola	IT	Europe/Rome	863033069630348438
38.10558	-1.86343	Caravaca	ES	Europe/Madrid	3590433799317661610
-21.15	46.58333	Ikalamavony	MG	Indian/Antananarivo	3590433799317662113
8.43333	99.96667	Nakhon Si Thammarat	TH	Asia/Bangkok	3590433799317661636
45.51667	4.86667	Vienne	FR	Europe/Paris	8630330696303482477
41.77583	140.73667	Hakodate	JP	Asia/Tokyo	3590433799317662261
54.52156	9.5586	Schleswig	DE	Europe/Berlin	3590433799317661230
51.08468	7.11393	Burscheid	DE	Europe/Berlin	863033069630348107
35.6803	51.0193	Shahre Jadide Andisheh	IR	Asia/Tehran	863033069630348560
36.81667	117.81667	Zhoucun	CN	Asia/Shanghai	359043379931766593
26.32293	91.00632	Barpeta	IN	Asia/Kolkata	8630330696303481685
34.95303	-120.43572	Santa Maria	US	America/Los_Angeles	863033069630348073
48.77644	2.29026	Sceaux	FR	Europe/Paris	359043379931766338
45.44694	8.62118	Novara	IT	Europe/Rome	863033069630348263
15.72892	120.57224	Burgos	PH	Asia/Manila	3590433799317661446
38.54491	-121.74052	Davis	US	America/Los_Angeles	8630330696303481560
37.49073	-2.77259	Baza	ES	Europe/Madrid	8630330696303481594
28.15112	-82.46148	Lutz	US	America/New_York	8630330696303481719
36.91023	-121.75689	Watsonville	US	America/Los_Angeles	3590433799317661628
41.27621	-72.86843	East Haven	US	America/New_York	863033069630348990
33.3213	130.94098	Hita	JP	Asia/Tokyo	359043379931766890
57.14369	-2.09814	Aberdeen	GB	Europe/London	3590433799317661719
53.63333	9.85	Halstenbek	DE	Europe/Berlin	3590433799317661388
5.27247	-3.59625	Bonoua	CI	Africa/Abidjan	863033069630348925
-12.91667	-39.25	Muritiba	BR	America/Bahia	3590433799317662212
42.8139	-1.64295	Segundo Ensanche	ES	Europe/Madrid	8630330696303482030
43.86682	-79.2663	Markham	CA	America/Toronto	863033069630348289
40.55851	17.80774	Mesagne	IT	Europe/Rome	8630330696303481768
39.00622	-77.4286	Sterling	US	America/New_York	863033069630348529
11.85	38.01667	Debre Tabor	ET	Africa/Addis_Ababa	359043379931766817
35.05266	-78.87836	Fayetteville	US	America/New_York	3590433799317661917
33.50921	-111.89903	Scottsdale	US	America/Phoenix	8630330696303481925
58.1908	40.17171	Danilov	RU	Europe/Moscow	3590433799317662352
40.87329	14.43865	Somma Vesuviana	IT	Europe/Rome	359043379931766114
26.91756	-82.07842	Punta Gorda Isles	US	America/New_York	8630330696303481735
34.25	135.31667	Iwade	JP	Asia/Tokyo	3590433799317661677
-4.83	29.65806	Mwandiga	TZ	Africa/Dar_es_Salaam	863033069630348933
30.75545	20.22625	Ajdabiya	LY	Africa/Tripoli	8630330696303482113
12.04161	75.35927	Talipparamba	IN	Asia/Kolkata	359043379931766809
43.2907	5.4384	Marseille 11	FR	Europe/Paris	3590433799317661842
-1.9487	30.4347	Rwamagana	RW	Africa/Kigali	3590433799317661313
42.64031	125.51176	Dongfeng	CN	Asia/Shanghai	3590433799317661230
35.48199	137.02166	Minokamo	JP	Asia/Tokyo	3590433799317661172
18.00747	-76.78319	New Kingston	JM	America/Jamaica	8630330696303481610
14.62578	121.12251	Antipolo	PH	Asia/Manila	8630330696303481958
53.69786	-2.68758	Leyland	GB	Europe/London	863033069630348636
40.1675	34.37389	Sungurlu	TR	Europe/Istanbul	863033069630348743
31.64615	120.74221	Changshu City	CN	Asia/Shanghai	8630330696303482428
55.75556	60.70278	Ozersk	RU	Asia/Yekaterinburg	863033069630348776
-2.13404	-79.59415	Milagro	EC	America/Guayaquil	359043379931766833
-7.76667	35.7	Iringa	TZ	Africa/Dar_es_Salaam	3590433799317661719
49.07866	30.96755	Zvenihorodka	UA	Europe/Kyiv	3590433799317662337
50.82882	-0.32247	Lancing	GB	Europe/London	3590433799317662394
11.8659	34.3869	Ar Ruseris	SD	Africa/Khartoum	3590433799317662428
-22.92306	-53.13722	Loanda	BR	America/Sao_Paulo	3590433799317662279
41.24264	16.50104	Bisceglie	IT	Europe/Rome	3590433799317662311
55.82885	-4.21376	Rutherglen	GB	Europe/London	359043379931766023
30.5427	-97.54667	Hutto	US	America/Chicago	863033069630348081
7.65649	4.92235	Efon-Alaaye	NG	Africa/Lagos	8630330696303481867
42.819	47.1192	Buynaksk	RU	Europe/Moscow	8630330696303481826
38.17492	-122.2608	American Canyon	US	America/Los_Angeles	359043379931766643
20.28527	-103.42897	Jocotepec	MX	America/Mexico_City	863033069630348180
60.18427	24.95034	Kallio	FI	Europe/Helsinki	8630330696303481123
-33.75881	150.99292	Baulkham Hills	AU	Australia/Sydney	3590433799317661842
-34.64966	-58.38341	Barracas	AR	America/Argentina/Buenos_Aires	3590433799317661511
10.10649	76.35484	Alwaye	IN	Asia/Kolkata	3590433799317661594
50.5107	18.30056	Strzelce Opolskie	PL	Europe/Warsaw	8630330696303481362
53.7446	-0.33525	Kingston upon Hull	GB	Europe/London	863033069630348057
38.55632	69.01354	Vahdat	TJ	Asia/Dushanbe	863033069630348842
29.21399	78.95693	Kashipur	IN	Asia/Kolkata	8630330696303481545
32.50611	120.14278	Jiangyan	CN	Asia/Shanghai	863033069630348172
39.33427	-76.43941	Middle River	US	America/New_York	8630330696303481685
57.97472	33.2525	Valday	RU	Europe/Moscow	863033069630348073
33.93113	-117.54866	Norco	US	America/Los_Angeles	863033069630348891
0.76755	24.43973	Yangambi	CD	Africa/Lubumbashi	3590433799317662329
52.21099	7.02238	Gronau	DE	Europe/Berlin	8630330696303481446
39.96097	-75.60804	West Chester	US	America/New_York	3590433799317661172
36.20829	-115.98391	Pahrump	US	America/Los_Angeles	359043379931766692
42.7392	-84.62081	Waverly	US	America/Detroit	8630330696303482105
45.40008	-73.58248	Sainte-Catherine	CA	America/Toronto	8630330696303481982
40.55851	17.80774	Mesagne	IT	Europe/Rome	359043379931766734
-28.24	-48.67028	Imbituba	BR	America/Sao_Paulo	3590433799317661784
51.04962	12.1369	Zeitz	DE	Europe/Berlin	8630330696303481651
42.16808	-88.42814	Huntley	US	America/Chicago	3590433799317662337
48.49144	9.20427	Reutlingen	DE	Europe/Berlin	359043379931766742
-33.79176	151.08057	Eastwood	AU	Australia/Sydney	863033069630348164
27.76056	-15.58602	Maspalomas	ES	Atlantic/Canary	8630330696303482014
58.7002	59.4839	Kachkanar	RU	Asia/Yekaterinburg	3590433799317662238
9.82564	78.25795	Tiruppuvanam	IN	Asia/Kolkata	863033069630348297
28.71271	77.656	Pilkhua	IN	Asia/Kolkata	8630330696303482485
57.14369	-2.09814	Aberdeen	GB	Europe/London	359043379931766551
37.52487	-77.55777	Bon Air	US	America/New_York	8630330696303482030
40.53123	17.58522	Francavilla Fontana	IT	Europe/Rome	359043379931766650
41.57439	24.71204	Smolyan	BG	Europe/Sofia	359043379931766494
41.16704	-73.20483	Bridgeport	US	America/New_York	8630330696303482493
-1.63333	13.58357	Franceville	GA	Africa/Libreville	863033069630348990
33.03699	-117.29198	Encinitas	US	America/Los_Angeles	359043379931766601
18.18158	76.03889	Osmanabad	IN	Asia/Kolkata	863033069630348149
25.6439	77.9129	Narwar	IN	Asia/Kolkata	8630330696303482386
-4.24444	-42.29444	Barras	BR	America/Fortaleza	3590433799317662360
40.85158	122.74754	Haicheng	CN	Asia/Shanghai	3590433799317661594
54.90083	38.07083	Stupino	RU	Europe/Moscow	3590433799317662105
50.18545	27.06365	Shepetivka	UA	Europe/Kyiv	8630330696303481446
47.38093	-122.23484	Kent	US	America/Los_Angeles	8630330696303482295
36.19278	117.65694	Laiwu	CN	Asia/Shanghai	359043379931766080
32.54278	111.50861	Danjiangkou	CN	Asia/Shanghai	359043379931766213
4.96667	10.7	Tonga	CM	Africa/Douala	8630330696303481677
48.25	16.4	Floridsdorf	AT	Europe/Vienna	8630330696303481982
38.37255	34.02537	Aksaray	TR	Europe/Istanbul	3590433799317661263
19.04222	-98.11889	Casa Blanca	MX	America/Mexico_City	863033069630348081
6.46838	-73.26022	Socorro	CO	America/Bogota	3590433799317662097
27.71809	-82.35176	Sun City Center	US	America/New_York	359043379931766312
47.92526	-97.03285	Grand Forks	US	America/Chicago	359043379931766544
39.22493	42.85693	Patnos	TR	Europe/Istanbul	3590433799317662352
56.03361	35.96944	Volokolamsk	RU	Europe/Moscow	863033069630348610
42.8139	-1.64295	Segundo Ensanche	ES	Europe/Madrid	863033069630348289
43.50891	16.43915	Split	HR	Europe/Zagreb	3590433799317661388
49.5099	6.74549	Losheim	DE	Europe/Berlin	3590433799317661545
38.55632	69.01354	Vahdat	TJ	Asia/Dushanbe	863033069630348172
39.00622	-77.4286	Sterling	US	America/New_York	3590433799317661156
65.93381	111.4834	Aykhal	RU	Asia/Yakutsk	863033069630348446
31.78336	35.23388	East Jerusalem	PS	Asia/Hebron	359043379931766148
34.25628	-78.04471	Leland	US	America/New_York	8630330696303482089
24.05979	77.40858	Leteri	IN	Asia/Kolkata	3590433799317661834
35.48199	137.02166	Minokamo	JP	Asia/Tokyo	359043379931766106
-23.44361	-51.87389	Sarandi	BR	America/Sao_Paulo	863033069630348685
41.92361	20.91361	Bogovinje	MK	Europe/Skopje	3590433799317661529
48.49144	9.20427	Reutlingen	DE	Europe/Berlin	3590433799317661743
43.86682	-79.2663	Markham	CA	America/Toronto	863033069630348834
38.06084	-97.92977	Hutchinson	US	America/Chicago	3590433799317662402
45.73333	4.91667	Bron	FR	Europe/Paris	863033069630348651
-19.7625	-44.31389	Esmeraldas	BR	America/Sao_Paulo	863033069630348461
-31.25033	-61.4867	Rafaela	AR	America/Argentina/Cordoba	3590433799317661958
55.85	37.56667	Likhobory	RU	Europe/Moscow	8630330696303482105
50.64336	7.2278	Bad Honnef	DE	Europe/Berlin	863033069630348958
43.32686	-2.98884	Leioa	ES	Europe/Madrid	359043379931766809
41.47892	-87.45476	Schererville	US	America/Chicago	3590433799317662444
33.41012	-91.06177	Greenville	US	America/Chicago	8630330696303481701
28.92694	78.23456	Bachhraon	IN	Asia/Kolkata	3590433799317661800
40.87363	14.34085	Volla	IT	Europe/Rome	359043379931766908
47.76232	-122.2054	Bothell	US	America/Los_Angeles	8630330696303482303
16.455	120.5875	La Trinidad	PH	Asia/Manila	8630330696303481602
-10.91722	-37.65	Lagarto	BR	America/Maceio	8630330696303481826
53.46506	-1.47217	Chapletown	GB	Europe/London	863033069630348669
-1.26753	116.82887	Balikpapan	ID	Asia/Makassar	3590433799317661966
27.34089	117.4831	Shaowu	CN	Asia/Shanghai	3590433799317661891
20.88197	85.83334	Bhuban	IN	Asia/Kolkata	3590433799317661040
29.98869	122.20488	Zhoushan	CN	Asia/Shanghai	3590433799317662386
34.75856	136.13108	Ueno-ebisumachi	JP	Asia/Tokyo	3590433799317661388
12.74409	-8.07257	Kati	ML	Africa/Bamako	8630330696303481784
34.4833	136.84186	Toba	JP	Asia/Tokyo	8630330696303481388
10.98778	-74.95472	Puerto Colombia	CO	America/Bogota	3590433799317661552
28.54944	-81.77285	Clermont	US	America/New_York	359043379931766890
23.18	88.58	Aistala	IN	Asia/Kolkata	3590433799317662352
32.35126	-95.30106	Tyler	US	America/Chicago	3590433799317661875
35.05266	-78.87836	Fayetteville	US	America/New_York	359043379931766882
52.14	5.58472	Barneveld	NL	Europe/Amsterdam	3590433799317662279
51.44889	5.51978	Tongelre	NL	Europe/Amsterdam	3590433799317661081
-22.92306	-53.13722	Loanda	BR	America/Sao_Paulo	359043379931766619
47.46657	84.87144	Zaysan	KZ	Asia/Almaty	359043379931766304
-5.41667	38.01667	Chanika	TZ	Africa/Dar_es_Salaam	8630330696303482279
40.57788	-73.95958	Brighton Beach	US	America/New_York	8630330696303481081
30.5427	-97.54667	Hutto	US	America/Chicago	8630330696303481495
18.18158	76.03889	Osmanabad	IN	Asia/Kolkata	863033069630348784
34.06635	-84.67837	Acworth	US	America/New_York	3590433799317661818
53.53041	43.67663	Nizhniy Lomov	RU	Europe/Moscow	8630330696303481198
20.14298	-77.43532	Media Luna	CU	America/Havana	8630330696303482386
47.56494	31.33078	Voznesensk	UA	Europe/Kyiv	3590433799317661644
33.14447	47.3799	Darreh Shahr	IR	Asia/Tehran	359043379931766361
-13.7804	34.4587	Salima	MW	Africa/Blantyre	359043379931766270
37.51803	15.00913	Misterbianco	IT	Europe/Rome	359043379931766312
14.37395	100.48528	Bang Ban	TH	Asia/Bangkok	8630330696303482188
52.59319	13.32127	Wittenau	DE	Europe/Berlin	8630330696303481867
-4.83	29.65806	Mwandiga	TZ	Africa/Dar_es_Salaam	3590433799317661701
12.74482	4.52514	Argungu	NG	Africa/Lagos	3590433799317661800
35.48199	137.02166	Minokamo	JP	Asia/Tokyo	359043379931766585
40.34912	-111.90466	Saratoga Springs	US	America/Denver	8630330696303481545
36.02506	-86.77917	Brentwood Estates	US	America/Chicago	359043379931766890
37.31309	40.74357	Mardin	TR	Europe/Istanbul	3590433799317661875
41.24255	-82.61573	Norwalk	US	America/New_York	8630330696303481081
8.48714	-13.2356	Freetown	SL	Africa/Freetown	8630330696303481644
33.37526	74.3092	Rajaori	IN	Asia/Kolkata	8630330696303482014
18.57677	-72.22625	Croix-des-Bouquets	HT	America/Port-au-Prince	359043379931766676
43.32686	-2.98884	Leioa	ES	Europe/Madrid	8630330696303481321
10.31672	123.89071	Cebu City	PH	Asia/Manila	3590433799317662113
-11.78333	19.91667	Luena	AO	Africa/Luanda	863033069630348479
31.39547	34.75699	Rahat	IL	Asia/Jerusalem	3590433799317661594
50.88506	4.07601	Denderleeuw	BE	Europe/Brussels	8630330696303482485
42.67164	14.01481	Roseto degli Abruzzi	IT	Europe/Rome	8630330696303482287
13.51825	99.95469	Damnoen Saduak	TH	Asia/Bangkok	3590433799317661651
22.75218	72.68533	Kheda	IN	Asia/Kolkata	3590433799317661602
51.62907	-0.74934	High Wycombe	GB	Europe/London	3590433799317661701
-15.21194	-75.11028	Minas de Marcona	PE	America/Lima	8630330696303481180
33.86419	48.26258	Aleshtar	IR	Asia/Tehran	863033069630348206
42.7392	-84.62081	Waverly	US	America/Detroit	863033069630348214
41.85059	-87.882	Westchester	US	America/Chicago	359043379931766254
38.10558	-1.86343	Caravaca	ES	Europe/Madrid	3590433799317661933
44.27804	-88.27205	Kaukauna	US	America/Chicago	8630330696303482436
-15.675	-38.94722	Canavieiras	BR	America/Bahia	359043379931766981
7.83389	-72.47417	Villa del Rosario	CO	America/Bogota	3590433799317661271
55.38752	36.73307	Naro-Fominsk	RU	Europe/Moscow	863033069630348677
42.50729	1.53414	les Escaldes	AD	Europe/Andorra	3590433799317662238
43.41949	77.0202	Otegen Batyra	KZ	Asia/Almaty	359043379931766965
26.32293	91.00632	Barpeta	IN	Asia/Kolkata	863033069630348784
25.49043	85.94001	Teghra	IN	Asia/Kolkata	8630330696303481081
33.37526	74.3092	Rajaori	IN	Asia/Kolkata	8630330696303481834
9.3337	122.8637	Santa Catalina	PH	Asia/Manila	3590433799317661321
15.45144	78.14797	Betamcherla	IN	Asia/Kolkata	8630330696303481115
53.51684	-113.3187	Sherwood Park	CA	America/Edmonton	8630330696303481222
-3.5403	118.9707	Majene	ID	Asia/Makassar	3590433799317661941
51.04962	12.1369	Zeitz	DE	Europe/Berlin	3590433799317661172
43.2907	5.4384	Marseille 11	FR	Europe/Paris	863033069630348784
18.87813	72.93924	Uran	IN	Asia/Kolkata	359043379931766882
52.68333	0.93333	East Dereham	GB	Europe/London	8630330696303481784
14.95472	120.89694	Baliuag	PH	Asia/Manila	863033069630348784
34.21639	-119.0376	Camarillo	US	America/Los_Angeles	359043379931766148
45.39402	9.29109	San Giuliano Milanese	IT	Europe/Rome	3590433799317662055
46.32374	-120.00865	Sunnyside	US	America/Los_Angeles	8630330696303481784
64.5635	39.8302	Severodvinsk	RU	Europe/Moscow	359043379931766452
48.15659	28.28489	Soroca	MD	Europe/Chisinau	359043379931766346
53.46506	-1.47217	Chapletown	GB	Europe/London	863033069630348537
40.55851	17.80774	Mesagne	IT	Europe/Rome	8630330696303482097
53.6052	10.03988	Barmbek-Nord	DE	Europe/Berlin	8630330696303481594
12.95629	78.27539	Robertsonpet	IN	Asia/Kolkata	863033069630348057
38.68712	-4.10734	Puertollano	ES	Europe/Madrid	8630330696303482410
13.51825	99.95469	Damnoen Saduak	TH	Asia/Bangkok	359043379931766429
37.31309	40.74357	Mardin	TR	Europe/Istanbul	863033069630348651
50.64336	7.2278	Bad Honnef	DE	Europe/Berlin	8630330696303481792
51.65	-0.2	Barnet	GB	Europe/London	3590433799317662386
49.03685	8.70745	Bretten	DE	Europe/Berlin	3590433799317661941
47.80527	-122.24064	Bothell West	US	America/Los_Angeles	863033069630348313
5.20856	-74.73584	Honda	CO	America/Bogota	3590433799317661644
10.13361	124.84472	Maasin	PH	Asia/Manila	3590433799317662089
26.2649	81.54855	Jais	IN	Asia/Kolkata	359043379931766072
8.43333	99.96667	Nakhon Si Thammarat	TH	Asia/Bangkok	3590433799317662253
22.98212	-80.58556	Corralillo	CU	America/Havana	3590433799317662121
37.05944	37.3825	Gaziantep	TR	Europe/Istanbul	3590433799317662428
13.70727	9.15013	Mirriah	NE	Africa/Niamey	8630330696303481594
-22.9	44.53333	Sakaraha	MG	Indian/Antananarivo	863033069630348164
-33.38056	-56.52361	Durazno	UY	America/Montevideo	3590433799317661313
20.74122	-100.44843	Santa Rosa Jauregui	MX	America/Mexico_City	863033069630348362
39.09112	-94.41551	Independence	US	America/Chicago	8630330696303482436
44.92801	4.8951	Valence	FR	Europe/Paris	3590433799317662279
34.75856	136.13108	Ueno-ebisumachi	JP	Asia/Tokyo	863033069630348529
28.88162	120.03308	Guli	CN	Asia/Shanghai	3590433799317661552
48.21644	9.02596	Albstadt	DE	Europe/Berlin	3590433799317661701
45.49428	-122.86705	Aloha	US	America/Los_Angeles	8630330696303481750
23.0072	-82.4017	Boyeros	CU	America/Havana	359043379931766403
-22.9	44.53333	Sakaraha	MG	Indian/Antananarivo	359043379931766973
-37.88333	145.06667	Carnegie	AU	Australia/Melbourne	8630330696303481537
49.195061	16.606836	Brno	CZ	Europe/Prague	8630330696303482345
17.94979	-94.91386	Acayucan	MX	America/Mexico_City	3590433799317661743
28.88162	120.03308	Guli	CN	Asia/Shanghai	359043379931766502
51.82721	107.60627	Ulan-Ude	RU	Asia/Irkutsk	359043379931766783
34.31	-2.16	Jerada	MA	Africa/Casablanca	8630330696303482402
41.15612	1.10687	Reus	ES	Europe/Madrid	359043379931766122
14.37395	100.48528	Bang Ban	TH	Asia/Bangkok	863033069630348990
10.10649	76.35484	Alwaye	IN	Asia/Kolkata	8630330696303482139
-11.48472	-37.93278	Rio Real	BR	America/Bahia	3590433799317661180
15.46063	99.89166	Thap Than	TH	Asia/Bangkok	8630330696303481586
30.35028	112.19028	Jingzhou	CN	Asia/Shanghai	359043379931766825
18.51957	73.85535	Pune	IN	Asia/Kolkata	863033069630348446
46.67535	5.55575	Lons-le-Saunier	FR	Europe/Paris	3590433799317662238
39.32011	-76.51552	Rosedale	US	America/New_York	8630330696303481115
14.0823	98.19151	Dawei	MM	Asia/Yangon	3590433799317662089
55.62047	37.49338	Tyoply Stan	RU	Europe/Moscow	359043379931766551
41.85059	-87.882	Westchester	US	America/Chicago	3590433799317662022
53.5942	25.8191	Novogrudok	BY	Europe/Minsk	8630330696303481180
-8.73508	24.99798	Kamina	CD	Africa/Lubumbashi	8630330696303481230
46.32313	-0.45877	Niort	FR	Europe/Paris	8630330696303482071
-8.43333	114.33333	Muncar	ID	Asia/Jakarta	8630330696303482162
52.14	5.58472	Barneveld	NL	Europe/Amsterdam	3590433799317661743
41.85059	-87.882	Westchester	US	America/Chicago	863033069630348610
49.07866	30.96755	Zvenihorodka	UA	Europe/Kyiv	8630330696303481990
50.09019	8.4493	Hofheim am Taunus	DE	Europe/Berlin	8630330696303482170
47.38093	-122.23484	Kent	US	America/Los_Angeles	3590433799317661362
32.35126	-95.30106	Tyler	US	America/Chicago	359043379931766304
-33.59217	-70.6996	San Bernardo	CL	America/Santiago	3590433799317661131
44.92801	4.8951	Valence	FR	Europe/Paris	8630330696303481107
50.88506	4.07601	Denderleeuw	BE	Europe/Brussels	359043379931766296
49.952431	15.268654	Kutná Hora	CZ	Europe/Prague	8630330696303481131
-10.33333	39.28333	Nyangao	TZ	Africa/Dar_es_Salaam	3590433799317661933
20.74122	-100.44843	Santa Rosa Jauregui	MX	America/Mexico_City	3590433799317661669
47.92526	-97.03285	Grand Forks	US	America/Chicago	3590433799317662345
27.34089	117.4831	Shaowu	CN	Asia/Shanghai	3590433799317661149
-22.53722	-42.98194	Guapimirim	BR	America/Sao_Paulo	863033069630348545
14.62072	74.83554	Sirsi	IN	Asia/Kolkata	8630330696303481727
35.95664	36.7138	Binnish	SY	Asia/Damascus	863033069630348156
43.32686	-2.98884	Leioa	ES	Europe/Madrid	8630330696303482329
26.11527	86.59509	Supaul	IN	Asia/Kolkata	3590433799317662451
43.32393	5.4584	Les Olives	FR	Europe/Paris	3590433799317661131
40.68066	-73.47429	Massapequa	US	America/New_York	3590433799317661016
40.85158	122.74754	Haicheng	CN	Asia/Shanghai	3590433799317661495
29.22254	79.5286	Haldwani	IN	Asia/Kolkata	3590433799317662295
51.26	-2.1875	Westbury	GB	Europe/London	8630330696303482485
40.92298	14.30935	Afragola	IT	Europe/Rome	8630330696303481404
48.975658	14.480255	České Budějovice	CZ	Europe/Prague	863033069630348289
6.45407	3.39467	Lagos	NG	Africa/Lagos	3590433799317662378
19.21667	73.08333	Dombivli	IN	Asia/Kolkata	3590433799317661537
-38.65333	178.00417	Gisborne	NZ	Pacific/Auckland	359043379931766320
54.8421	46.5813	Alatyr‚Äô	RU	Europe/Moscow	3590433799317662188
22.75218	72.68533	Kheda	IN	Asia/Kolkata	8630330696303481784
41.27194	123.17306	Liaoyang	CN	Asia/Shanghai	8630330696303482303
50.073658	14.418540	Praha	CZ	Europe/Prague	8630330696303481966
31.78336	35.23388	East Jerusalem	PS	Asia/Hebron	3590433799317661669
43.83125	5.03586	Cavaillon	FR	Europe/Paris	8630330696303481750
25.49043	85.94001	Teghra	IN	Asia/Kolkata	8630330696303482402
39.08367	-84.50855	Covington	US	America/New_York	3590433799317661024
38.68712	-4.10734	Puertollano	ES	Europe/Madrid	3590433799317662097
-1.9487	30.4347	Rwamagana	RW	Africa/Kigali	8630330696303482352
28.88162	120.03308	Guli	CN	Asia/Shanghai	359043379931766379
15.79408	104.1451	Yasothon	TH	Asia/Bangkok	863033069630348685
33.92866	-6.90656	Temara	MA	Africa/Casablanca	359043379931766643
48.8449	17.22635	Skalica	SK	Europe/Bratislava	3590433799317661081
48.25	16.4	Floridsdorf	AT	Europe/Vienna	863033069630348743
55.63711	37.38115	Solntsevo	RU	Europe/Moscow	863033069630348420
42.93369	-72.27814	Keene	US	America/New_York	8630330696303481149
42.93369	-72.27814	Keene	US	America/New_York	8630330696303482303
-31.4488	-60.93173	Esperanza	AR	America/Argentina/Cordoba	8630330696303482345
42.7	27.25	Aytos	BG	Europe/Sofia	8630330696303481073
27.9247	78.40102	Chharra	IN	Asia/Kolkata	8630330696303481727
42.24113	-88.3162	Crystal Lake	US	America/Chicago	359043379931766072
33.7207	-116.21677	Indio	US	America/Los_Angeles	863033069630348016
43.11667	1.6	Pamiers	FR	Europe/Paris	3590433799317662451
46.67535	5.55575	Lons-le-Saunier	FR	Europe/Paris	359043379931766957
6.8485	3.64633	Shagamu	NG	Africa/Lagos	8630330696303481826
53.38333	-0.76667	Gainsborough	GB	Europe/London	3590433799317661552
26.67319	31.4976	Juhaynah	EG	Africa/Cairo	8630330696303481271
-26.93366	29.24152	Standerton	ZA	Africa/Johannesburg	359043379931766692
-17.73648	168.31366	Port-Vila	VU	Pacific/Efate	863033069630348834
33.08014	-83.2321	Milledgeville	US	America/New_York	8630330696303481909
44.43579	26.01649	Sector 6	RO	Europe/Bucharest	359043379931766015
45.78071	12.84052	Portogruaro	IT	Europe/Rome	3590433799317661537
47.38093	-122.23484	Kent	US	America/Los_Angeles	3590433799317662295
47.56494	31.33078	Voznesensk	UA	Europe/Kyiv	3590433799317661313
-7.0981	109.3243	Randudongkal	ID	Asia/Jakarta	8630330696303481750
41.57439	24.71204	Smolyan	BG	Europe/Sofia	359043379931766692
27.92333	118.53333	Pucheng	CN	Asia/Shanghai	359043379931766122
34.85	117.33333	Taozhuang	CN	Asia/Shanghai	8630330696303481529
3.51667	11.5	Mbalmayo	CM	Africa/Douala	359043379931766031
37.49223	15.07041	Catania	IT	Europe/Rome	863033069630348156
33.3213	130.94098	Hita	JP	Asia/Tokyo	863033069630348370
56.85836	35.90057	Tver	RU	Europe/Moscow	3590433799317661339
38.07789	13.44275	Villabate	IT	Europe/Rome	3590433799317662253
31.76212	-95.63079	Palestine	US	America/Chicago	359043379931766528
-10.95817	-38.79084	Tucano	BR	America/Bahia	359043379931766387
40.11583	67.84222	Jizzax	UZ	Asia/Samarkand	3590433799317662386
50.76306	-1.29772	Cowes	GB	Europe/London	8630330696303481958
6.46838	-73.26022	Socorro	CO	America/Bogota	359043379931766999
42.52787	-70.92866	Peabody	US	America/New_York	863033069630348008
53.00974	-3.05814	Rhosllanerchrugog	GB	Europe/London	359043379931766502
37.16911	10.03478	El Alia	TN	Africa/Tunis	863033069630348560
21.01858	-101.2591	Guanajuato	MX	America/Mexico_City	3590433799317662014
4.94273	15.87735	Carnot	CF	Africa/Bangui	8630330696303481834
50.72043	11.34046	Rudolstadt	DE	Europe/Berlin	8630330696303481271
12.95629	78.27539	Robertsonpet	IN	Asia/Kolkata	3590433799317661891
4.73245	-74.26419	Madrid	CO	America/Bogota	3590433799317661727
17.54907	82.85749	Elamanchili	IN	Asia/Kolkata	8630330696303481636
39.45621	-77.96389	Martinsburg	US	America/New_York	3590433799317662469
4.2475	9.00472	Idenao	CM	Africa/Douala	3590433799317662253
-6.48167	106.85417	Cibinong	ID	Asia/Jakarta	3590433799317661982
42	21.32778	Saraj	MK	Europe/Skopje	359043379931766551
35.89972	14.51472	Valletta	MT	Europe/Malta	8630330696303481891
9.92787	-84.13722	San Rafael	CR	America/Costa_Rica	3590433799317662170
43.41949	77.0202	Otegen Batyra	KZ	Asia/Almaty	863033069630348578
34.5624	38.28402	Tadmur	SY	Asia/Damascus	359043379931766189
34.75856	136.13108	Ueno-ebisumachi	JP	Asia/Tokyo	863033069630348776
45.35	126.28333	Shuangcheng	CN	Asia/Shanghai	359043379931766106
13.51825	99.95469	Damnoen Saduak	TH	Asia/Bangkok	8630330696303481032
32.5007	-94.74049	Longview	US	America/Chicago	8630330696303482006
0.46005	34.11169	Busia	KE	Africa/Nairobi	8630330696303481602
50.82882	-0.32247	Lancing	GB	Europe/London	3590433799317661933
36.6009	126.665	Hongseong	KR	Asia/Seoul	8630330696303481008
42.28639	18.84	Budva	ME	Europe/Podgorica	8630330696303482139
-44.39672	171.25364	Timaru	NZ	Pacific/Auckland	8630330696303482097
36.6009	126.665	Hongseong	KR	Asia/Seoul	863033069630348172
-33.75881	150.99292	Baulkham Hills	AU	Australia/Sydney	8630330696303481016
40.63316	-74.13653	Port Richmond	US	America/New_York	863033069630348404
-21.44236	27.46153	Tonota	BW	Africa/Gaborone	8630330696303481834
40.65538	-74.38987	Scotch Plains	US	America/New_York	8630330696303481735
40.24537	-75.64963	Pottstown	US	America/New_York	8630330696303482410
46.32374	-120.00865	Sunnyside	US	America/Los_Angeles	359043379931766510
40.42386	-3.53261	San Fernando de Henares	ES	Europe/Madrid	8630330696303481875
-8.73508	24.99798	Kamina	CD	Africa/Lubumbashi	3590433799317661784
35.815	139.6853	Shimotoda	JP	Asia/Tokyo	863033069630348198
42.64031	125.51176	Dongfeng	CN	Asia/Shanghai	3590433799317662444
14.67751	-60.94228	Le Robert	MQ	America/Martinique	8630330696303481339
49.820923	18.262524	Ostrava	CZ	Europe/Prague	863033069630348834
32.65246	51.67462	Isfahan	IR	Asia/Tehran	3590433799317662139
32.42067	-104.22884	Carlsbad	US	America/Denver	3590433799317661016
42.64031	125.51176	Dongfeng	CN	Asia/Shanghai	8630330696303481875
51.47805	6.8625	Oberhausen	DE	Europe/Berlin	863033069630348081
12.95629	78.27539	Robertsonpet	IN	Asia/Kolkata	3590433799317661180
-26.93366	29.24152	Standerton	ZA	Africa/Johannesburg	359043379931766205
42.62833	20.89389	Glogovac	XK	Europe/Belgrade	3590433799317662352
36.21544	65.93249	Sar-e Pul	AF	Asia/Kabul	359043379931766973
27.34089	117.4831	Shaowu	CN	Asia/Shanghai	8630330696303481453
10.66668	-61.51889	Port of Spain	TT	America/Port_of_Spain	3590433799317661008
-6.48167	106.85417	Cibinong	ID	Asia/Jakarta	863033069630348008
51.14942	15.00835	Zgorzelec	PL	Europe/Warsaw	8630330696303481727
40.70995	0.57856	Amposta	ES	Europe/Madrid	3590433799317661776
36.76775	2.95924	Cheraga	DZ	Africa/Algiers	359043379931766213
42	21.32778	Saraj	MK	Europe/Skopje	863033069630348602
51.67822	33.9162	Hlukhiv	UA	Europe/Kyiv	8630330696303481313
29.98869	122.20488	Zhoushan	CN	Asia/Shanghai	3590433799317662071
50.88506	4.07601	Denderleeuw	BE	Europe/Brussels	3590433799317662469
42.8139	-1.64295	Segundo Ensanche	ES	Europe/Madrid	863033069630348404
10.61285	12.19458	Biu	NG	Africa/Lagos	8630330696303481255
35.95664	36.7138	Binnish	SY	Asia/Damascus	8630330696303481479
32.35126	-95.30106	Tyler	US	America/Chicago	8630330696303481917
16.06213	76.0586	Hungund	IN	Asia/Kolkata	863033069630348818
53.0233	-1.48119	Belper	GB	Europe/London	8630330696303482246
42.58342	-71.8023	Fitchburg	US	America/New_York	359043379931766858
51.20219	7.36027	Radevormwald	DE	Europe/Berlin	359043379931766692
42.62833	20.89389	Glogovac	XK	Europe/Belgrade	8630330696303481180
53.63333	9.85	Halstenbek	DE	Europe/Berlin	359043379931766577
57.47908	-4.22398	Inverness	GB	Europe/London	8630330696303481651
38.40917	112.73333	Xinzhou	CN	Asia/Shanghai	3590433799317662451
19.8173	-97.35992	Teziutlan	MX	America/Mexico_City	3590433799317662006
22.98212	-80.58556	Corralillo	CU	America/Havana	3590433799317661149
-8.28333	-35.03333	Cabo	BR	America/Recife	863033069630348040
34.77453	-96.67834	Ada	US	America/Chicago	3590433799317661495
-37.88333	145.06667	Carnegie	AU	Australia/Melbourne	3590433799317661453
34.4833	136.84186	Toba	JP	Asia/Tokyo	8630330696303482428
-22.9	44.53333	Sakaraha	MG	Indian/Antananarivo	359043379931766270
51.39323	0.47713	Strood	GB	Europe/London	8630330696303481388
40.72586	8.55552	Sassari	IT	Europe/Rome	359043379931766650
